{
  "saved_at": "2026-07-09 13:34:50",
  "count": 824,
  "pages_done": [
    0,
    1,
    2,
    3,
    5,
    6,
    8,
    9,
    10,
    11,
    12,
    13,
    15,
    18,
    19,
    20
  ],
  "stations": [
    {
      "source": "taiwan_cwa",
      "kind": "taiwan_auto_station",
      "area_id": "taiwan",
      "station_id": "TW:C2H9D0",
      "name": "三隻寮",
      "city": "南投縣",
      "area_name": "國姓鄉",
      "lon": 120.853424,
      "lat": 24.094845
    },
    {
      "source": "taiwan_cwa",
      "kind": "taiwan_auto_station",
      "area_id": "taiwan",
      "station_id": "TW:C2H9J0",
      "name": "中台",
      "city": "南投縣",
      "area_name": "埔里鎮",
      "lon": 120.930591,
      "lat": 24.001373
    },
    {
      "source": "taiwan_cwa",
      "kind": "taiwan_auto_station",
      "area_id": "taiwan",
      "station_id": "TW:C2H950",
      "name": "中寮",
      "city": "南投縣",
      "area_name": "中寮鄉",
      "lon": 120.758528,
      "lat": 23.886278
    },
    {
      "source": "taiwan_cwa",
      "kind": "taiwan_auto_station",
      "area_id": "taiwan",
      "station_id": "TW:72HA00",
      "name": "中改埔里分場",
      "city": "南投縣",
      "area_name": "魚池鄉",
      "lon": 120.955222,
      "lat": 23.904982
    },
    {
      "source": "taiwan_cwa",
      "kind": "taiwan_auto_station",
      "area_id": "taiwan",
      "station_id": "TW:C2H9N0",
      "name": "仁愛東眼",
      "city": "南投縣",
      "area_name": "仁愛鄉",
      "lon": 121.112349,
      "lat": 24.028656
    },
    {
      "source": "taiwan_cwa",
      "kind": "taiwan_auto_station",
      "area_id": "taiwan",
      "station_id": "TW:C2H9P0",
      "name": "伊拿谷",
      "city": "南投縣",
      "area_name": "仁愛鄉",
      "lon": 121.080118,
      "lat": 23.964991
    },
    {
      "source": "taiwan_cwa",
      "kind": "taiwan_auto_station",
      "area_id": "taiwan",
      "station_id": "TW:C0I080",
      "name": "信義",
      "city": "南投縣",
      "area_name": "信義鄉",
      "lon": 120.842778,
      "lat": 23.691389
    },
    {
      "source": "taiwan_cwa",
      "kind": "taiwan_auto_station",
      "area_id": "taiwan",
      "station_id": "TW:C2I260",
      "name": "北坑",
      "city": "南投縣",
      "area_name": "埔里鎮",
      "lon": 120.998687,
      "lat": 23.926407
    },
    {
      "source": "taiwan_cwa",
      "kind": "taiwan_auto_station",
      "area_id": "taiwan",
      "station_id": "TW:C2H9Q0",
      "name": "北東眼山",
      "city": "南投縣",
      "area_name": "仁愛鄉",
      "lon": 121.181145,
      "lat": 24.122721
    },
    {
      "source": "taiwan_cwa",
      "kind": "taiwan_auto_station",
      "area_id": "taiwan",
      "station_id": "TW:C2H9R0",
      "name": "卓社",
      "city": "南投縣",
      "area_name": "仁愛鄉",
      "lon": 120.991946,
      "lat": 23.889672
    },
    {
      "source": "taiwan_cwa",
      "kind": "taiwan_auto_station",
      "area_id": "taiwan",
      "station_id": "TW:C0H9C0",
      "name": "合歡山頂",
      "city": "南投縣",
      "area_name": "仁愛鄉",
      "lon": 121.264083,
      "lat": 24.144778
    },
    {
      "source": "taiwan_cwa",
      "kind": "taiwan_auto_station",
      "area_id": "taiwan",
      "station_id": "TW:C0I410",
      "name": "名間",
      "city": "南投縣",
      "area_name": "名間鄉",
      "lon": 120.693306,
      "lat": 23.838817
    },
    {
      "source": "taiwan_cwa",
      "kind": "taiwan_auto_station",
      "area_id": "taiwan",
      "station_id": "TW:C2H9T0",
      "name": "名間竹圍",
      "city": "南投縣",
      "area_name": "名間鄉",
      "lon": 120.629436,
      "lat": 23.861675
    },
    {
      "source": "taiwan_cwa",
      "kind": "taiwan_auto_station",
      "area_id": "taiwan",
      "station_id": "TW:CAH010",
      "name": "國三N223K",
      "city": "南投縣",
      "area_name": "草屯鎮",
      "lon": 120.654227,
      "lat": 23.956874
    },
    {
      "source": "taiwan_cwa",
      "kind": "taiwan_auto_station",
      "area_id": "taiwan",
      "station_id": "TW:CAH020",
      "name": "國三S217K",
      "city": "南投縣",
      "area_name": "草屯鎮",
      "lon": 120.645062,
      "lat": 24.008587
    },
    {
      "source": "taiwan_cwa",
      "kind": "taiwan_auto_station",
      "area_id": "taiwan",
      "station_id": "TW:C0I420",
      "name": "國姓",
      "city": "南投縣",
      "area_name": "國姓鄉",
      "lon": 120.846925,
      "lat": 24.039567
    },
    {
      "source": "taiwan_cwa",
      "kind": "taiwan_auto_station",
      "area_id": "taiwan",
      "station_id": "TW:C2H9E0",
      "name": "國姓南港",
      "city": "南投縣",
      "area_name": "國姓鄉",
      "lon": 120.838415,
      "lat": 23.912878
    },
    {
      "source": "taiwan_cwa",
      "kind": "taiwan_auto_station",
      "area_id": "taiwan",
      "station_id": "TW:C0H890",
      "name": "埔里",
      "city": "南投縣",
      "area_name": "埔里鎮",
      "lon": 120.944278,
      "lat": 23.973944
    },
    {
      "source": "taiwan_cwa",
      "kind": "taiwan_auto_station",
      "area_id": "taiwan",
      "station_id": "TW:C2I240",
      "name": "外大坪",
      "city": "南投縣",
      "area_name": "埔里鎮",
      "lon": 120.909735,
      "lat": 23.960473
    },
    {
      "source": "taiwan_cwa",
      "kind": "taiwan_auto_station",
      "area_id": "taiwan",
      "station_id": "TW:C2H9W0",
      "name": "大坪頂農水",
      "city": "南投縣",
      "area_name": "埔里鎮",
      "lon": 120.92463,
      "lat": 24.044894
    },
    {
      "source": "taiwan_cwa",
      "kind": "taiwan_auto_station",
      "area_id": "taiwan",
      "station_id": "TW:C0I540",
      "name": "奇萊稜線",
      "city": "南投縣",
      "area_name": "仁愛鄉",
      "lon": 121.318297,
      "lat": 24.111019
    },
    {
      "source": "taiwan_cwa",
      "kind": "taiwan_auto_station",
      "area_id": "taiwan",
      "station_id": "TW:C0HA10",
      "name": "奧萬大",
      "city": "南投縣",
      "area_name": "仁愛鄉",
      "lon": 121.170332,
      "lat": 23.95473
    },
    {
      "source": "taiwan_cwa",
      "kind": "taiwan_auto_station",
      "area_id": "taiwan",
      "station_id": "TW:C0I530",
      "name": "小奇萊",
      "city": "南投縣",
      "area_name": "仁愛鄉",
      "lon": 121.287556,
      "lat": 24.13355
    },
    {
      "source": "taiwan_cwa",
      "kind": "taiwan_auto_station",
      "area_id": "taiwan",
      "station_id": "TW:C2H9K0",
      "name": "屯原",
      "city": "南投縣",
      "area_name": "仁愛鄉",
      "lon": 121.201235,
      "lat": 24.069754
    },
    {
      "source": "taiwan_cwa",
      "kind": "taiwan_auto_station",
      "area_id": "taiwan",
      "station_id": "TW:C0I010",
      "name": "廬山",
      "city": "南投縣",
      "area_name": "仁愛鄉",
      "lon": 121.173333,
      "lat": 24.035
    },
    {
      "source": "taiwan_cwa",
      "kind": "taiwan_auto_station",
      "area_id": "taiwan",
      "station_id": "TW:467650",
      "name": "日月潭",
      "city": "南投縣",
      "area_name": "魚池鄉",
      "lon": 120.899911,
      "lat": 23.883099
    },
    {
      "source": "taiwan_cwa",
      "kind": "taiwan_auto_station",
      "area_id": "taiwan",
      "station_id": "TW:C0H990",
      "name": "昆陽",
      "city": "南投縣",
      "area_name": "仁愛鄉",
      "lon": 121.265361,
      "lat": 24.123139
    },
    {
      "source": "taiwan_cwa",
      "kind": "taiwan_auto_station",
      "area_id": "taiwan",
      "station_id": "TW:C2H9Y0",
      "name": "松茗",
      "city": "南投縣",
      "area_name": "名間鄉",
      "lon": 120.642632,
      "lat": 23.818463
    },
    {
      "source": "taiwan_cwa",
      "kind": "taiwan_auto_station",
      "area_id": "taiwan",
      "station_id": "TW:C2H9F0",
      "name": "柑林",
      "city": "南投縣",
      "area_name": "國姓鄉",
      "lon": 120.838924,
      "lat": 24.020426
    },
    {
      "source": "taiwan_cwa",
      "kind": "taiwan_auto_station",
      "area_id": "taiwan",
      "station_id": "TW:C0I480",
      "name": "梅峰",
      "city": "南投縣",
      "area_name": "仁愛鄉",
      "lon": 121.165414,
      "lat": 24.087056
    },
    {
      "source": "taiwan_cwa",
      "kind": "taiwan_auto_station",
      "area_id": "taiwan",
      "station_id": "TW:C0I360",
      "name": "水里",
      "city": "南投縣",
      "area_name": "水里鄉",
      "lon": 120.841658,
      "lat": 23.814322
    },
    {
      "source": "taiwan_cwa",
      "kind": "taiwan_auto_station",
      "area_id": "taiwan",
      "station_id": "TW:CAHA00",
      "name": "消防署訓練中心",
      "city": "南投縣",
      "area_name": "竹山鎮",
      "lon": 120.7148,
      "lat": 23.82313
    },
    {
      "source": "taiwan_cwa",
      "kind": "taiwan_auto_station",
      "area_id": "taiwan",
      "station_id": "TW:467550",
      "name": "玉山",
      "city": "南投縣",
      "area_name": "信義鄉",
      "lon": 120.951318,
      "lat": 23.488964
    },
    {
      "source": "taiwan_cwa",
      "kind": "taiwan_auto_station",
      "area_id": "taiwan",
      "station_id": "TW:C0I520",
      "name": "玉山風口",
      "city": "南投縣",
      "area_name": "信義鄉",
      "lon": 120.947853,
      "lat": 23.472294
    },
    {
      "source": "taiwan_cwa",
      "kind": "taiwan_auto_station",
      "area_id": "taiwan",
      "station_id": "TW:E2HA20",
      "name": "畢祿溪站",
      "city": "南投縣",
      "area_name": "仁愛鄉",
      "lon": 121.300362,
      "lat": 24.22873
    },
    {
      "source": "taiwan_cwa",
      "kind": "taiwan_auto_station",
      "area_id": "taiwan",
      "station_id": "TW:C2H9M0",
      "name": "發祥",
      "city": "南投縣",
      "area_name": "仁愛鄉",
      "lon": 121.156357,
      "lat": 24.155875
    },
    {
      "source": "taiwan_cwa",
      "kind": "taiwan_auto_station",
      "area_id": "taiwan",
      "station_id": "TW:C2H9G0",
      "name": "百勝",
      "city": "南投縣",
      "area_name": "國姓鄉",
      "lon": 120.90121,
      "lat": 24.052912
    },
    {
      "source": "taiwan_cwa",
      "kind": "taiwan_auto_station",
      "area_id": "taiwan",
      "station_id": "TW:C0H9A0",
      "name": "神木村",
      "city": "南投縣",
      "area_name": "信義鄉",
      "lon": 120.835553,
      "lat": 23.534519
    },
    {
      "source": "taiwan_cwa",
      "kind": "taiwan_auto_station",
      "area_id": "taiwan",
      "station_id": "TW:C2H9X0",
      "name": "福盛",
      "city": "南投縣",
      "area_name": "中寮鄉",
      "lon": 120.83263,
      "lat": 23.8953
    },
    {
      "source": "taiwan_cwa",
      "kind": "taiwan_auto_station",
      "area_id": "taiwan",
      "station_id": "TW:U2HA40",
      "name": "臺大內茅埔",
      "city": "南投縣",
      "area_name": "信義鄉",
      "lon": 120.842992,
      "lat": 23.691497
    },
    {
      "source": "taiwan_cwa",
      "kind": "taiwan_auto_station",
      "area_id": "taiwan",
      "station_id": "TW:U2HA30",
      "name": "臺大和社",
      "city": "南投縣",
      "area_name": "信義鄉",
      "lon": 120.880744,
      "lat": 23.592633
    },
    {
      "source": "taiwan_cwa",
      "kind": "taiwan_auto_station",
      "area_id": "taiwan",
      "station_id": "TW:U2H480",
      "name": "臺大溪頭",
      "city": "南投縣",
      "area_name": "鹿谷鄉",
      "lon": 120.790065,
      "lat": 23.672071
    },
    {
      "source": "taiwan_cwa",
      "kind": "taiwan_auto_station",
      "area_id": "taiwan",
      "station_id": "TW:U2HA50",
      "name": "臺大竹山",
      "city": "南投縣",
      "area_name": "竹山鎮",
      "lon": 120.67342,
      "lat": 23.758731
    },
    {
      "source": "taiwan_cwa",
      "kind": "taiwan_auto_station",
      "area_id": "taiwan",
      "station_id": "TW:C2H9H0",
      "name": "苗改南投蜂場",
      "city": "南投縣",
      "area_name": "名間鄉",
      "lon": 120.685345,
      "lat": 23.854353
    },
    {
      "source": "taiwan_cwa",
      "kind": "taiwan_auto_station",
      "area_id": "taiwan",
      "station_id": "TW:82H320",
      "name": "茶改中部分場",
      "city": "南投縣",
      "area_name": "魚池鄉",
      "lon": 120.905442,
      "lat": 23.877382
    },
    {
      "source": "taiwan_cwa",
      "kind": "taiwan_auto_station",
      "area_id": "taiwan",
      "station_id": "TW:82H840",
      "name": "茶改南部分場",
      "city": "南投縣",
      "area_name": "鹿谷鄉",
      "lon": 120.732364,
      "lat": 23.76429
    },
    {
      "source": "taiwan_cwa",
      "kind": "taiwan_auto_station",
      "area_id": "taiwan",
      "station_id": "TW:C0H960",
      "name": "草屯",
      "city": "南投縣",
      "area_name": "草屯鎮",
      "lon": 120.672194,
      "lat": 23.975444
    },
    {
      "source": "taiwan_cwa",
      "kind": "taiwan_auto_station",
      "area_id": "taiwan",
      "station_id": "TW:C0I490",
      "name": "萬大林道",
      "city": "南投縣",
      "area_name": "仁愛鄉",
      "lon": 121.083267,
      "lat": 23.930008
    },
    {
      "source": "taiwan_cwa",
      "kind": "taiwan_auto_station",
      "area_id": "taiwan",
      "station_id": "TW:42HA10",
      "name": "萬大發電廠",
      "city": "南投縣",
      "area_name": "仁愛鄉",
      "lon": 121.131497,
      "lat": 23.980611
    },
    {
      "source": "taiwan_cwa",
      "kind": "taiwan_auto_station",
      "area_id": "taiwan",
      "station_id": "TW:E2H360",
      "name": "蓮華池",
      "city": "南投縣",
      "area_name": "魚池鄉",
      "lon": 120.877136,
      "lat": 23.920106
    },
    {
      "source": "taiwan_cwa",
      "kind": "taiwan_auto_station",
      "area_id": "taiwan",
      "station_id": "TW:C2I210",
      "name": "蘆竹湳",
      "city": "南投縣",
      "area_name": "中寮鄉",
      "lon": 120.803948,
      "lat": 23.935748
    },
    {
      "source": "taiwan_cwa",
      "kind": "taiwan_auto_station",
      "area_id": "taiwan",
      "station_id": "TW:C0I380",
      "name": "集集",
      "city": "南投縣",
      "area_name": "集集鎮",
      "lon": 120.793328,
      "lat": 23.829972
    },
    {
      "source": "taiwan_cwa",
      "kind": "taiwan_auto_station",
      "area_id": "taiwan",
      "station_id": "TW:C2H9L0",
      "name": "馬烈霸",
      "city": "南投縣",
      "area_name": "仁愛鄉",
      "lon": 121.193613,
      "lat": 24.152982
    },
    {
      "source": "taiwan_cwa",
      "kind": "taiwan_auto_station",
      "area_id": "taiwan",
      "station_id": "TW:C2I090",
      "name": "鳳凰",
      "city": "南投縣",
      "area_name": "鹿谷鄉",
      "lon": 120.779167,
      "lat": 23.729722
    },
    {
      "source": "taiwan_cwa",
      "kind": "taiwan_auto_station",
      "area_id": "taiwan",
      "station_id": "TW:C2H9U0",
      "name": "鳳鵬",
      "city": "南投縣",
      "area_name": "鹿谷鄉",
      "lon": 120.779931,
      "lat": 23.76569
    },
    {
      "source": "taiwan_cwa",
      "kind": "taiwan_auto_station",
      "area_id": "taiwan",
      "station_id": "TW:C2H9S0",
      "name": "龍南",
      "city": "南投縣",
      "area_name": "國姓鄉",
      "lon": 120.825039,
      "lat": 23.955305
    },
    {
      "source": "taiwan_cwa",
      "kind": "taiwan_auto_station",
      "area_id": "taiwan",
      "station_id": "TW:467480",
      "name": "嘉義",
      "city": "嘉義市",
      "area_name": "西區",
      "lon": 120.424796,
      "lat": 23.497684
    },
    {
      "source": "taiwan_cwa",
      "kind": "taiwan_auto_station",
      "area_id": "taiwan",
      "station_id": "TW:C2M910",
      "name": "嘉義大學",
      "city": "嘉義市",
      "area_name": "東區",
      "lon": 120.477795,
      "lat": 23.473087
    },
    {
      "source": "taiwan_cwa",
      "kind": "taiwan_auto_station",
      "area_id": "taiwan",
      "station_id": "TW:C0M730",
      "name": "嘉義市東區",
      "city": "嘉義市",
      "area_name": "東區",
      "lon": 120.452408,
      "lat": 23.459414
    },
    {
      "source": "taiwan_cwa",
      "kind": "taiwan_auto_station",
      "area_id": "taiwan",
      "station_id": "TW:CAL070",
      "name": "國三N295K",
      "city": "嘉義市",
      "area_name": "東區",
      "lon": 120.491261,
      "lat": 23.470361
    },
    {
      "source": "taiwan_cwa",
      "kind": "taiwan_auto_station",
      "area_id": "taiwan",
      "station_id": "TW:G2L020",
      "name": "農試嘉義分所",
      "city": "嘉義市",
      "area_name": "東區",
      "lon": 120.465684,
      "lat": 23.486776
    },
    {
      "source": "taiwan_cwa",
      "kind": "taiwan_auto_station",
      "area_id": "taiwan",
      "station_id": "TW:C0M640",
      "name": "中埔",
      "city": "嘉義縣",
      "area_name": "中埔鄉",
      "lon": 120.514797,
      "lat": 23.427144
    },
    {
      "source": "taiwan_cwa",
      "kind": "taiwan_auto_station",
      "area_id": "taiwan",
      "station_id": "TW:C0M9K0",
      "name": "二萬平",
      "city": "嘉義縣",
      "area_name": "阿里山鄉",
      "lon": 120.78199,
      "lat": 23.51016
    },
    {
      "source": "taiwan_cwa",
      "kind": "taiwan_auto_station",
      "area_id": "taiwan",
      "station_id": "TW:C0M9J0",
      "name": "交力坪",
      "city": "嘉義縣",
      "area_name": "竹崎鄉",
      "lon": 120.63544,
      "lat": 23.53344
    },
    {
      "source": "taiwan_cwa",
      "kind": "taiwan_auto_station",
      "area_id": "taiwan",
      "station_id": "TW:C2M9D0",
      "name": "何竹子腳",
      "city": "嘉義縣",
      "area_name": "民雄鄉",
      "lon": 120.373918,
      "lat": 23.538166
    },
    {
      "source": "taiwan_cwa",
      "kind": "taiwan_auto_station",
      "area_id": "taiwan",
      "station_id": "TW:C0M740",
      "name": "六腳",
      "city": "嘉義縣",
      "area_name": "六腳鄉",
      "lon": 120.2825,
      "lat": 23.494611
    },
    {
      "source": "taiwan_cwa",
      "kind": "taiwan_auto_station",
      "area_id": "taiwan",
      "station_id": "TW:72M360",
      "name": "南改義竹分場",
      "city": "嘉義縣",
      "area_name": "義竹鄉",
      "lon": 120.271244,
      "lat": 23.362432
    },
    {
      "source": "taiwan_cwa",
      "kind": "taiwan_auto_station",
      "area_id": "taiwan",
      "station_id": "TW:72M700",
      "name": "南改鹿草分場",
      "city": "嘉義縣",
      "area_name": "鹿草鄉",
      "lon": 120.274941,
      "lat": 23.418608
    },
    {
      "source": "taiwan_cwa",
      "kind": "taiwan_auto_station",
      "area_id": "taiwan",
      "station_id": "TW:CAL010",
      "name": "國一N250K",
      "city": "嘉義縣",
      "area_name": "大林鎮",
      "lon": 120.428737,
      "lat": 23.612038
    },
    {
      "source": "taiwan_cwa",
      "kind": "taiwan_auto_station",
      "area_id": "taiwan",
      "station_id": "TW:CAL030",
      "name": "國一N268K",
      "city": "嘉義縣",
      "area_name": "水上鄉",
      "lon": 120.367726,
      "lat": 23.46259
    },
    {
      "source": "taiwan_cwa",
      "kind": "taiwan_auto_station",
      "area_id": "taiwan",
      "station_id": "TW:CAL040",
      "name": "國一N273K",
      "city": "嘉義縣",
      "area_name": "水上鄉",
      "lon": 120.346896,
      "lat": 23.418417
    },
    {
      "source": "taiwan_cwa",
      "kind": "taiwan_auto_station",
      "area_id": "taiwan",
      "station_id": "TW:CAL020",
      "name": "國一S262K",
      "city": "嘉義縣",
      "area_name": "民雄鄉",
      "lon": 120.394927,
      "lat": 23.51409
    },
    {
      "source": "taiwan_cwa",
      "kind": "taiwan_auto_station",
      "area_id": "taiwan",
      "station_id": "TW:CAL050",
      "name": "國三N279K",
      "city": "嘉義縣",
      "area_name": "大林鎮",
      "lon": 120.515216,
      "lat": 23.597872
    },
    {
      "source": "taiwan_cwa",
      "kind": "taiwan_auto_station",
      "area_id": "taiwan",
      "station_id": "TW:CAL080",
      "name": "國三N303K",
      "city": "嘉義縣",
      "area_name": "中埔鄉",
      "lon": 120.444389,
      "lat": 23.413742
    },
    {
      "source": "taiwan_cwa",
      "kind": "taiwan_auto_station",
      "area_id": "taiwan",
      "station_id": "TW:CAM900",
      "name": "國三S290K",
      "city": "嘉義縣",
      "area_name": "竹崎鄉",
      "lon": 120.482631,
      "lat": 23.505867
    },
    {
      "source": "taiwan_cwa",
      "kind": "taiwan_auto_station",
      "area_id": "taiwan",
      "station_id": "TW:C2M960",
      "name": "外寮",
      "city": "嘉義縣",
      "area_name": "梅山鄉",
      "lon": 120.657572,
      "lat": 23.564411
    },
    {
      "source": "taiwan_cwa",
      "kind": "taiwan_auto_station",
      "area_id": "taiwan",
      "station_id": "TW:C2M990",
      "name": "大巃頂",
      "city": "嘉義縣",
      "area_name": "梅山鄉",
      "lon": 120.606275,
      "lat": 23.556466
    },
    {
      "source": "taiwan_cwa",
      "kind": "taiwan_auto_station",
      "area_id": "taiwan",
      "station_id": "TW:C0M670",
      "name": "大林",
      "city": "嘉義縣",
      "area_name": "大林鎮",
      "lon": 120.450281,
      "lat": 23.602361
    },
    {
      "source": "taiwan_cwa",
      "kind": "taiwan_auto_station",
      "area_id": "taiwan",
      "station_id": "TW:C2M9A0",
      "name": "大華",
      "city": "嘉義縣",
      "area_name": "竹崎鄉",
      "lon": 120.6668,
      "lat": 23.484171
    },
    {
      "source": "taiwan_cwa",
      "kind": "taiwan_auto_station",
      "area_id": "taiwan",
      "station_id": "TW:C0M680",
      "name": "太保",
      "city": "嘉義縣",
      "area_name": "太保市",
      "lon": 120.323303,
      "lat": 23.456792
    },
    {
      "source": "taiwan_cwa",
      "kind": "taiwan_auto_station",
      "area_id": "taiwan",
      "station_id": "TW:C2M950",
      "name": "太和",
      "city": "嘉義縣",
      "area_name": "梅山鄉",
      "lon": 120.694847,
      "lat": 23.540143
    },
    {
      "source": "taiwan_cwa",
      "kind": "taiwan_auto_station",
      "area_id": "taiwan",
      "station_id": "TW:C2M530",
      "name": "奮起湖",
      "city": "嘉義縣",
      "area_name": "竹崎鄉",
      "lon": 120.691142,
      "lat": 23.495674
    },
    {
      "source": "taiwan_cwa",
      "kind": "taiwan_auto_station",
      "area_id": "taiwan",
      "station_id": "TW:C0M880",
      "name": "好美里",
      "city": "嘉義縣",
      "area_name": "布袋鎮",
      "lon": 120.129936,
      "lat": 23.338176
    },
    {
      "source": "taiwan_cwa",
      "kind": "taiwan_auto_station",
      "area_id": "taiwan",
      "station_id": "TW:C2M980",
      "name": "安和",
      "city": "嘉義縣",
      "area_name": "新港鄉",
      "lon": 120.30782,
      "lat": 23.515523
    },
    {
      "source": "taiwan_cwa",
      "kind": "taiwan_auto_station",
      "area_id": "taiwan",
      "station_id": "TW:C2M9F0",
      "name": "安溪寮",
      "city": "嘉義縣",
      "area_name": "義竹鄉",
      "lon": 120.199941,
      "lat": 23.352086
    },
    {
      "source": "taiwan_cwa",
      "kind": "taiwan_auto_station",
      "area_id": "taiwan",
      "station_id": "TW:CAL110",
      "name": "布袋國中",
      "city": "嘉義縣",
      "area_name": "布袋鎮",
      "lon": 120.17216,
      "lat": 23.360676
    },
    {
      "source": "taiwan_cwa",
      "kind": "taiwan_auto_station",
      "area_id": "taiwan",
      "station_id": "TW:C0M790",
      "name": "新港",
      "city": "嘉義縣",
      "area_name": "新港鄉",
      "lon": 120.3376,
      "lat": 23.555011
    },
    {
      "source": "taiwan_cwa",
      "kind": "taiwan_auto_station",
      "area_id": "taiwan",
      "station_id": "TW:C0M860",
      "name": "新美",
      "city": "嘉義縣",
      "area_name": "阿里山鄉",
      "lon": 120.675231,
      "lat": 23.339792
    },
    {
      "source": "taiwan_cwa",
      "kind": "taiwan_auto_station",
      "area_id": "taiwan",
      "station_id": "TW:C2M940",
      "name": "日野賀",
      "city": "嘉義縣",
      "area_name": "阿里山鄉",
      "lon": 120.719062,
      "lat": 23.435829
    },
    {
      "source": "taiwan_cwa",
      "kind": "taiwan_auto_station",
      "area_id": "taiwan",
      "station_id": "TW:C2M9E0",
      "name": "旺來山",
      "city": "嘉義縣",
      "area_name": "民雄鄉",
      "lon": 120.478349,
      "lat": 23.556913
    },
    {
      "source": "taiwan_cwa",
      "kind": "taiwan_auto_station",
      "area_id": "taiwan",
      "station_id": "TW:C0M650",
      "name": "朴子",
      "city": "嘉義縣",
      "area_name": "朴子市",
      "lon": 120.230928,
      "lat": 23.436364
    },
    {
      "source": "taiwan_cwa",
      "kind": "taiwan_auto_station",
      "area_id": "taiwan",
      "station_id": "TW:C2M920",
      "name": "朴子農改",
      "city": "嘉義縣",
      "area_name": "朴子市",
      "lon": 120.251277,
      "lat": 23.47164
    },
    {
      "source": "taiwan_cwa",
      "kind": "taiwan_auto_station",
      "area_id": "taiwan",
      "station_id": "TW:C0M520",
      "name": "東後寮",
      "city": "嘉義縣",
      "area_name": "義竹鄉",
      "lon": 120.239936,
      "lat": 23.371644
    },
    {
      "source": "taiwan_cwa",
      "kind": "taiwan_auto_station",
      "area_id": "taiwan",
      "station_id": "TW:C0M710",
      "name": "東石",
      "city": "嘉義縣",
      "area_name": "東石鄉",
      "lon": 120.145722,
      "lat": 23.460653
    },
    {
      "source": "taiwan_cwa",
      "kind": "taiwan_auto_station",
      "area_id": "taiwan",
      "station_id": "TW:C0M770",
      "name": "梅山",
      "city": "嘉義縣",
      "area_name": "梅山鄉",
      "lon": 120.547464,
      "lat": 23.587147
    },
    {
      "source": "taiwan_cwa",
      "kind": "taiwan_auto_station",
      "area_id": "taiwan",
      "station_id": "TW:C0M760",
      "name": "民雄",
      "city": "嘉義縣",
      "area_name": "民雄鄉",
      "lon": 120.420331,
      "lat": 23.553497
    },
    {
      "source": "taiwan_cwa",
      "kind": "taiwan_auto_station",
      "area_id": "taiwan",
      "station_id": "TW:C0M690",
      "name": "水上",
      "city": "嘉義縣",
      "area_name": "水上鄉",
      "lon": 120.380792,
      "lat": 23.421475
    },
    {
      "source": "taiwan_cwa",
      "kind": "taiwan_auto_station",
      "area_id": "taiwan",
      "station_id": "TW:C0M9H0",
      "name": "水社寮",
      "city": "嘉義縣",
      "area_name": "竹崎鄉",
      "lon": 120.65223,
      "lat": 23.50594
    },
    {
      "source": "taiwan_cwa",
      "kind": "taiwan_auto_station",
      "area_id": "taiwan",
      "station_id": "TW:C2M9G0",
      "name": "沄水",
      "city": "嘉義縣",
      "area_name": "中埔鄉",
      "lon": 120.518557,
      "lat": 23.384696
    },
    {
      "source": "taiwan_cwa",
      "kind": "taiwan_auto_station",
      "area_id": "taiwan",
      "station_id": "TW:C0M660",
      "name": "溪口",
      "city": "嘉義縣",
      "area_name": "溪口鄉",
      "lon": 120.395439,
      "lat": 23.605872
    },
    {
      "source": "taiwan_cwa",
      "kind": "taiwan_auto_station",
      "area_id": "taiwan",
      "station_id": "TW:C2M620",
      "name": "瑞里",
      "city": "嘉義縣",
      "area_name": "梅山鄉",
      "lon": 120.667039,
      "lat": 23.546903
    },
    {
      "source": "taiwan_cwa",
      "kind": "taiwan_auto_station",
      "area_id": "taiwan",
      "station_id": "TW:C0M720",
      "name": "番路",
      "city": "嘉義縣",
      "area_name": "番路鄉",
      "lon": 120.546028,
      "lat": 23.466408
    },
    {
      "source": "taiwan_cwa",
      "kind": "taiwan_auto_station",
      "area_id": "taiwan",
      "station_id": "TW:C2M930",
      "name": "石卓",
      "city": "嘉義縣",
      "area_name": "竹崎鄉",
      "lon": 120.694154,
      "lat": 23.480516
    },
    {
      "source": "taiwan_cwa",
      "kind": "taiwan_auto_station",
      "area_id": "taiwan",
      "station_id": "TW:C2M970",
      "name": "碧湖",
      "city": "嘉義縣",
      "area_name": "梅山鄉",
      "lon": 120.616047,
      "lat": 23.570397
    },
    {
      "source": "taiwan_cwa",
      "kind": "taiwan_auto_station",
      "area_id": "taiwan",
      "station_id": "TW:C0M700",
      "name": "竹崎",
      "city": "嘉義縣",
      "area_name": "竹崎鄉",
      "lon": 120.547378,
      "lat": 23.527931
    },
    {
      "source": "taiwan_cwa",
      "kind": "taiwan_auto_station",
      "area_id": "taiwan",
      "station_id": "TW:C2M9C0",
      "name": "紫雲",
      "city": "嘉義縣",
      "area_name": "竹崎鄉",
      "lon": 120.532142,
      "lat": 23.496678
    },
    {
      "source": "taiwan_cwa",
      "kind": "taiwan_auto_station",
      "area_id": "taiwan",
      "station_id": "TW:C0M800",
      "name": "茶山",
      "city": "嘉義縣",
      "area_name": "阿里山鄉",
      "lon": 120.656664,
      "lat": 23.300847
    },
    {
      "source": "taiwan_cwa",
      "kind": "taiwan_auto_station",
      "area_id": "taiwan",
      "station_id": "TW:C0M850",
      "name": "表湖",
      "city": "嘉義縣",
      "area_name": "大埔鄉",
      "lon": 120.633564,
      "lat": 23.243628
    },
    {
      "source": "taiwan_cwa",
      "kind": "taiwan_auto_station",
      "area_id": "taiwan",
      "station_id": "TW:CAL090",
      "name": "西濱S257K",
      "city": "嘉義縣",
      "area_name": "東石鄉",
      "lon": 120.163753,
      "lat": 23.504025
    },
    {
      "source": "taiwan_cwa",
      "kind": "taiwan_auto_station",
      "area_id": "taiwan",
      "station_id": "TW:CAL100",
      "name": "西濱S267K",
      "city": "嘉義縣",
      "area_name": "東石鄉",
      "lon": 120.15477,
      "lat": 23.417568
    },
    {
      "source": "taiwan_cwa",
      "kind": "taiwan_auto_station",
      "area_id": "taiwan",
      "station_id": "TW:C2M9B0",
      "name": "西興",
      "city": "嘉義縣",
      "area_name": "大埔鄉",
      "lon": 120.568077,
      "lat": 23.244571
    },
    {
      "source": "taiwan_cwa",
      "kind": "taiwan_auto_station",
      "area_id": "taiwan",
      "station_id": "TW:G2M350",
      "name": "農試溪口農場",
      "city": "嘉義縣",
      "area_name": "溪口鄉",
      "lon": 120.399994,
      "lat": 23.587406
    },
    {
      "source": "taiwan_cwa",
      "kind": "taiwan_auto_station",
      "area_id": "taiwan",
      "station_id": "TW:C0M820",
      "name": "達邦",
      "city": "嘉義縣",
      "area_name": "阿里山鄉",
      "lon": 120.741403,
      "lat": 23.455769
    },
    {
      "source": "taiwan_cwa",
      "kind": "taiwan_auto_station",
      "area_id": "taiwan",
      "station_id": "TW:C2M810",
      "name": "里佳",
      "city": "嘉義縣",
      "area_name": "阿里山鄉",
      "lon": 120.708543,
      "lat": 23.390899
    },
    {
      "source": "taiwan_cwa",
      "kind": "taiwan_auto_station",
      "area_id": "taiwan",
      "station_id": "TW:467530",
      "name": "阿里山",
      "city": "嘉義縣",
      "area_name": "阿里山鄉",
      "lon": 120.805129,
      "lat": 23.509984
    },
    {
      "source": "taiwan_cwa",
      "kind": "taiwan_auto_station",
      "area_id": "taiwan",
      "station_id": "TW:C2M410",
      "name": "馬頭山",
      "city": "嘉義縣",
      "area_name": "大埔鄉",
      "lon": 120.573611,
      "lat": 23.326389
    },
    {
      "source": "taiwan_cwa",
      "kind": "taiwan_auto_station",
      "area_id": "taiwan",
      "station_id": "TW:C0M780",
      "name": "鹿草",
      "city": "嘉義縣",
      "area_name": "鹿草鄉",
      "lon": 120.300231,
      "lat": 23.413075
    },
    {
      "source": "taiwan_cwa",
      "kind": "taiwan_auto_station",
      "area_id": "taiwan",
      "station_id": "TW:C0B010",
      "name": "七堵",
      "city": "基隆市",
      "area_name": "七堵區",
      "lon": 121.708897,
      "lat": 25.096608
    },
    {
      "source": "taiwan_cwa",
      "kind": "taiwan_auto_station",
      "area_id": "taiwan",
      "station_id": "TW:C0B050",
      "name": "八斗子",
      "city": "基隆市",
      "area_name": "中正區",
      "lon": 121.783436,
      "lat": 25.146547
    },
    {
      "source": "taiwan_cwa",
      "kind": "taiwan_auto_station",
      "area_id": "taiwan",
      "station_id": "TW:CAB010",
      "name": "國一S001K",
      "city": "基隆市",
      "area_name": "安樂區",
      "lon": 121.720369,
      "lat": 25.11762
    },
    {
      "source": "taiwan_cwa",
      "kind": "taiwan_auto_station",
      "area_id": "taiwan",
      "station_id": "TW:CAB020",
      "name": "國一S006K",
      "city": "基隆市",
      "area_name": "七堵區",
      "lon": 121.678671,
      "lat": 25.088729
    },
    {
      "source": "taiwan_cwa",
      "kind": "taiwan_auto_station",
      "area_id": "taiwan",
      "station_id": "TW:CAB050",
      "name": "國三N002K",
      "city": "基隆市",
      "area_name": "中山區",
      "lon": 121.713466,
      "lat": 25.147619
    },
    {
      "source": "taiwan_cwa",
      "kind": "taiwan_auto_station",
      "area_id": "taiwan",
      "station_id": "TW:CAB030",
      "name": "國三S004K",
      "city": "基隆市",
      "area_name": "七堵區",
      "lon": 121.680369,
      "lat": 25.116228
    },
    {
      "source": "taiwan_cwa",
      "kind": "taiwan_auto_station",
      "area_id": "taiwan",
      "station_id": "TW:CAB040",
      "name": "國三S007K",
      "city": "基隆市",
      "area_name": "七堵區",
      "lon": 121.65957,
      "lat": 25.098727
    },
    {
      "source": "taiwan_cwa",
      "kind": "taiwan_auto_station",
      "area_id": "taiwan",
      "station_id": "TW:466940",
      "name": "基隆",
      "city": "基隆市",
      "area_name": "仁愛區",
      "lon": 121.732242,
      "lat": 25.135104
    },
    {
      "source": "taiwan_cwa",
      "kind": "taiwan_auto_station",
      "area_id": "taiwan",
      "station_id": "TW:C0B020",
      "name": "基隆嶼",
      "city": "基隆市",
      "area_name": "中正區",
      "lon": 121.775678,
      "lat": 25.1932
    },
    {
      "source": "taiwan_cwa",
      "kind": "taiwan_auto_station",
      "area_id": "taiwan",
      "station_id": "TW:C0B040",
      "name": "大武崙",
      "city": "基隆市",
      "area_name": "安樂區",
      "lon": 121.698758,
      "lat": 25.168464
    },
    {
      "source": "taiwan_cwa",
      "kind": "taiwan_auto_station",
      "area_id": "taiwan",
      "station_id": "TW:466950",
      "name": "彭佳嶼",
      "city": "基隆市",
      "area_name": "中正區",
      "lon": 122.071474,
      "lat": 25.629774
    },
    {
      "source": "taiwan_cwa",
      "kind": "taiwan_auto_station",
      "area_id": "taiwan",
      "station_id": "TW:C0B060",
      "name": "暖暖",
      "city": "基隆市",
      "area_name": "暖暖區",
      "lon": 121.732069,
      "lat": 25.097533
    },
    {
      "source": "taiwan_cwa",
      "kind": "taiwan_auto_station",
      "area_id": "taiwan",
      "station_id": "TW:C2UC40",
      "name": "中城",
      "city": "宜蘭縣",
      "area_name": "冬山鄉",
      "lon": 121.739254,
      "lat": 24.630449
    },
    {
      "source": "taiwan_cwa",
      "kind": "taiwan_auto_station",
      "area_id": "taiwan",
      "station_id": "TW:C0U780",
      "name": "五結",
      "city": "宜蘭縣",
      "area_name": "五結鄉",
      "lon": 121.790222,
      "lat": 24.688722
    },
    {
      "source": "taiwan_cwa",
      "kind": "taiwan_auto_station",
      "area_id": "taiwan",
      "station_id": "TW:C0U900",
      "name": "內城",
      "city": "宜蘭縣",
      "area_name": "員山鄉",
      "lon": 121.679461,
      "lat": 24.719928
    },
    {
      "source": "taiwan_cwa",
      "kind": "taiwan_auto_station",
      "area_id": "taiwan",
      "station_id": "TW:C0U910",
      "name": "冬山",
      "city": "宜蘭縣",
      "area_name": "冬山鄉",
      "lon": 121.7855,
      "lat": 24.635528
    },
    {
      "source": "taiwan_cwa",
      "kind": "taiwan_auto_station",
      "area_id": "taiwan",
      "station_id": "TW:C2UC10",
      "name": "出水溪",
      "city": "宜蘭縣",
      "area_name": "大同鄉",
      "lon": 121.644058,
      "lat": 24.617617
    },
    {
      "source": "taiwan_cwa",
      "kind": "taiwan_auto_station",
      "area_id": "taiwan",
      "station_id": "TW:C0U880",
      "name": "北關",
      "city": "宜蘭縣",
      "area_name": "頭城鎮",
      "lon": 121.865211,
      "lat": 24.90902
    },
    {
      "source": "taiwan_cwa",
      "kind": "taiwan_auto_station",
      "area_id": "taiwan",
      "station_id": "TW:C0U720",
      "name": "南山",
      "city": "宜蘭縣",
      "area_name": "大同鄉",
      "lon": 121.373333,
      "lat": 24.439167
    },
    {
      "source": "taiwan_cwa",
      "kind": "taiwan_auto_station",
      "area_id": "taiwan",
      "station_id": "TW:C0U770",
      "name": "南澳",
      "city": "宜蘭縣",
      "area_name": "南澳鄉",
      "lon": 121.802036,
      "lat": 24.451153
    },
    {
      "source": "taiwan_cwa",
      "kind": "taiwan_auto_station",
      "area_id": "taiwan",
      "station_id": "TW:C0U990",
      "name": "員山",
      "city": "宜蘭縣",
      "area_name": "員山鄉",
      "lon": 121.714269,
      "lat": 24.746147
    },
    {
      "source": "taiwan_cwa",
      "kind": "taiwan_auto_station",
      "area_id": "taiwan",
      "station_id": "TW:CAUB30",
      "name": "國五S031K",
      "city": "宜蘭縣",
      "area_name": "礁溪鄉",
      "lon": 121.774168,
      "lat": 24.820942
    },
    {
      "source": "taiwan_cwa",
      "kind": "taiwan_auto_station",
      "area_id": "taiwan",
      "station_id": "TW:CAUB40",
      "name": "國五S041K",
      "city": "宜蘭縣",
      "area_name": "壯圍鄉",
      "lon": 121.773719,
      "lat": 24.736563
    },
    {
      "source": "taiwan_cwa",
      "kind": "taiwan_auto_station",
      "area_id": "taiwan",
      "station_id": "TW:CAUB50",
      "name": "國五S047K",
      "city": "宜蘭縣",
      "area_name": "羅東鎮",
      "lon": 121.786384,
      "lat": 24.677257
    },
    {
      "source": "taiwan_cwa",
      "kind": "taiwan_auto_station",
      "area_id": "taiwan",
      "station_id": "TW:C0UA00",
      "name": "土場",
      "city": "宜蘭縣",
      "area_name": "大同鄉",
      "lon": 121.487153,
      "lat": 24.578356
    },
    {
      "source": "taiwan_cwa",
      "kind": "taiwan_auto_station",
      "area_id": "taiwan",
      "station_id": "TW:C0U980",
      "name": "坪林石牌",
      "city": "宜蘭縣",
      "area_name": "頭城鎮",
      "lon": 121.76575,
      "lat": 24.866578
    },
    {
      "source": "taiwan_cwa",
      "kind": "taiwan_auto_station",
      "area_id": "taiwan",
      "station_id": "TW:C0UB20",
      "name": "壯圍",
      "city": "宜蘭縣",
      "area_name": "壯圍鄉",
      "lon": 121.808046,
      "lat": 24.737723
    },
    {
      "source": "taiwan_cwa",
      "kind": "taiwan_auto_station",
      "area_id": "taiwan",
      "station_id": "TW:C0UA20",
      "name": "多加屯",
      "city": "宜蘭縣",
      "area_name": "大同鄉",
      "lon": 121.365011,
      "lat": 24.3704
    },
    {
      "source": "taiwan_cwa",
      "kind": "taiwan_auto_station",
      "area_id": "taiwan",
      "station_id": "TW:C0UA80",
      "name": "大溪漁港",
      "city": "宜蘭縣",
      "area_name": "頭城鎮",
      "lon": 121.894736,
      "lat": 24.943603
    },
    {
      "source": "taiwan_cwa",
      "kind": "taiwan_auto_station",
      "area_id": "taiwan",
      "station_id": "TW:C0U870",
      "name": "大礁溪",
      "city": "宜蘭縣",
      "area_name": "礁溪鄉",
      "lon": 121.666839,
      "lat": 24.792836
    },
    {
      "source": "taiwan_cwa",
      "kind": "taiwan_auto_station",
      "area_id": "taiwan",
      "station_id": "TW:C0U970",
      "name": "大福",
      "city": "宜蘭縣",
      "area_name": "壯圍鄉",
      "lon": 121.805683,
      "lat": 24.802436
    },
    {
      "source": "taiwan_cwa",
      "kind": "taiwan_auto_station",
      "area_id": "taiwan",
      "station_id": "TW:C0U710",
      "name": "太平山",
      "city": "宜蘭縣",
      "area_name": "大同鄉",
      "lon": 121.5175,
      "lat": 24.507222
    },
    {
      "source": "taiwan_cwa",
      "kind": "taiwan_auto_station",
      "area_id": "taiwan",
      "station_id": "TW:C0UB70",
      "name": "太平山中間站",
      "city": "宜蘭縣",
      "area_name": "大同鄉",
      "lon": 121.5052,
      "lat": 24.5437
    },
    {
      "source": "taiwan_cwa",
      "kind": "taiwan_auto_station",
      "area_id": "taiwan",
      "station_id": "TW:C0UB90",
      "name": "太平山莊",
      "city": "宜蘭縣",
      "area_name": "大同鄉",
      "lon": 121.5281,
      "lat": 24.4959
    },
    {
      "source": "taiwan_cwa",
      "kind": "taiwan_auto_station",
      "area_id": "taiwan",
      "station_id": "TW:467080",
      "name": "宜蘭",
      "city": "宜蘭縣",
      "area_name": "宜蘭市",
      "lon": 121.748322,
      "lat": 24.765773
    },
    {
      "source": "taiwan_cwa",
      "kind": "taiwan_auto_station",
      "area_id": "taiwan",
      "station_id": "TW:C0UB60",
      "name": "明池",
      "city": "宜蘭縣",
      "area_name": "大同鄉",
      "lon": 121.4673,
      "lat": 24.6506
    },
    {
      "source": "taiwan_cwa",
      "kind": "taiwan_auto_station",
      "area_id": "taiwan",
      "station_id": "TW:C0U760",
      "name": "東澳",
      "city": "宜蘭縣",
      "area_name": "南澳鄉",
      "lon": 121.824986,
      "lat": 24.523767
    },
    {
      "source": "taiwan_cwa",
      "kind": "taiwan_auto_station",
      "area_id": "taiwan",
      "station_id": "TW:C0UA70",
      "name": "桃源谷",
      "city": "宜蘭縣",
      "area_name": "頭城鎮",
      "lon": 121.880658,
      "lat": 24.964408
    },
    {
      "source": "taiwan_cwa",
      "kind": "taiwan_auto_station",
      "area_id": "taiwan",
      "station_id": "TW:C0UA60",
      "name": "樟樹山",
      "city": "宜蘭縣",
      "area_name": "南澳鄉",
      "lon": 121.775067,
      "lat": 24.415731
    },
    {
      "source": "taiwan_cwa",
      "kind": "taiwan_auto_station",
      "area_id": "taiwan",
      "station_id": "TW:C0UB00",
      "name": "淡江大學蘭陽校園",
      "city": "宜蘭縣",
      "area_name": "礁溪鄉",
      "lon": 121.722172,
      "lat": 24.825033
    },
    {
      "source": "taiwan_cwa",
      "kind": "taiwan_auto_station",
      "area_id": "taiwan",
      "station_id": "TW:C0U650",
      "name": "玉蘭",
      "city": "宜蘭縣",
      "area_name": "大同鄉",
      "lon": 121.578889,
      "lat": 24.677222
    },
    {
      "source": "taiwan_cwa",
      "kind": "taiwan_auto_station",
      "area_id": "taiwan",
      "station_id": "TW:B2U990",
      "name": "畜試東區分所",
      "city": "宜蘭縣",
      "area_name": "五結鄉",
      "lon": 121.824362,
      "lat": 24.670842
    },
    {
      "source": "taiwan_cwa",
      "kind": "taiwan_auto_station",
      "area_id": "taiwan",
      "station_id": "TW:C0UA30",
      "name": "白嶺",
      "city": "宜蘭縣",
      "area_name": "大同鄉",
      "lon": 121.510844,
      "lat": 24.529611
    },
    {
      "source": "taiwan_cwa",
      "kind": "taiwan_auto_station",
      "area_id": "taiwan",
      "station_id": "TW:C0UA90",
      "name": "石城",
      "city": "宜蘭縣",
      "area_name": "頭城鎮",
      "lon": 121.942992,
      "lat": 24.982247
    },
    {
      "source": "taiwan_cwa",
      "kind": "taiwan_auto_station",
      "area_id": "taiwan",
      "station_id": "TW:C0U600",
      "name": "礁溪",
      "city": "宜蘭縣",
      "area_name": "礁溪鄉",
      "lon": 121.757397,
      "lat": 24.819336
    },
    {
      "source": "taiwan_cwa",
      "kind": "taiwan_auto_station",
      "area_id": "taiwan",
      "station_id": "TW:C0U940",
      "name": "羅東",
      "city": "宜蘭縣",
      "area_name": "羅東鎮",
      "lon": 121.741144,
      "lat": 24.683636
    },
    {
      "source": "taiwan_cwa",
      "kind": "taiwan_auto_station",
      "area_id": "taiwan",
      "station_id": "TW:C0UB80",
      "name": "翠峰林道6K",
      "city": "宜蘭縣",
      "area_name": "大同鄉",
      "lon": 121.5604,
      "lat": 24.4995
    },
    {
      "source": "taiwan_cwa",
      "kind": "taiwan_auto_station",
      "area_id": "taiwan",
      "station_id": "TW:C0U960",
      "name": "翠峰湖",
      "city": "宜蘭縣",
      "area_name": "大同鄉",
      "lon": 121.599858,
      "lat": 24.51265
    },
    {
      "source": "taiwan_cwa",
      "kind": "taiwan_auto_station",
      "area_id": "taiwan",
      "station_id": "TW:72U480",
      "name": "花改蘭陽分場",
      "city": "宜蘭縣",
      "area_name": "三星鄉",
      "lon": 121.708402,
      "lat": 24.688121
    },
    {
      "source": "taiwan_cwa",
      "kind": "taiwan_auto_station",
      "area_id": "taiwan",
      "station_id": "TW:C0UB10",
      "name": "蘇澳",
      "city": "宜蘭縣",
      "area_name": "蘇澳鎮",
      "lon": 121.848895,
      "lat": 24.59875
    },
    {
      "source": "taiwan_cwa",
      "kind": "taiwan_auto_station",
      "area_id": "taiwan",
      "station_id": "TW:C0UA50",
      "name": "西帽山",
      "city": "宜蘭縣",
      "area_name": "南澳鄉",
      "lon": 121.794436,
      "lat": 24.557164
    },
    {
      "source": "taiwan_cwa",
      "kind": "taiwan_auto_station",
      "area_id": "taiwan",
      "station_id": "TW:C0UA40",
      "name": "西德山",
      "city": "宜蘭縣",
      "area_name": "南澳鄉",
      "lon": 121.744417,
      "lat": 24.562447
    },
    {
      "source": "taiwan_cwa",
      "kind": "taiwan_auto_station",
      "area_id": "taiwan",
      "station_id": "TW:C2UC30",
      "name": "金洋",
      "city": "宜蘭縣",
      "area_name": "南澳鄉",
      "lon": 121.737548,
      "lat": 24.426453
    },
    {
      "source": "taiwan_cwa",
      "kind": "taiwan_auto_station",
      "area_id": "taiwan",
      "station_id": "TW:C2UC20",
      "name": "長嶺",
      "city": "宜蘭縣",
      "area_name": "員山鄉",
      "lon": 121.603419,
      "lat": 24.710732
    },
    {
      "source": "taiwan_cwa",
      "kind": "taiwan_auto_station",
      "area_id": "taiwan",
      "station_id": "TW:C0U520",
      "name": "雙連埤",
      "city": "宜蘭縣",
      "area_name": "員山鄉",
      "lon": 121.633056,
      "lat": 24.754722
    },
    {
      "source": "taiwan_cwa",
      "kind": "taiwan_auto_station",
      "area_id": "taiwan",
      "station_id": "TW:C0UA10",
      "name": "鴛鴦湖",
      "city": "宜蘭縣",
      "area_name": "大同鄉",
      "lon": 121.404039,
      "lat": 24.592053
    },
    {
      "source": "taiwan_cwa",
      "kind": "taiwan_auto_station",
      "area_id": "taiwan",
      "station_id": "TW:C0U950",
      "name": "鶯子嶺",
      "city": "宜蘭縣",
      "area_name": "頭城鎮",
      "lon": 121.784231,
      "lat": 24.899333
    },
    {
      "source": "taiwan_cwa",
      "kind": "taiwan_auto_station",
      "area_id": "taiwan",
      "station_id": "TW:C0U750",
      "name": "龜山島",
      "city": "宜蘭縣",
      "area_name": "頭城鎮",
      "lon": 121.944947,
      "lat": 24.843392
    },
    {
      "source": "taiwan_cwa",
      "kind": "taiwan_auto_station",
      "area_id": "taiwan",
      "station_id": "TW:C0R150",
      "name": "三地門",
      "city": "屏東縣",
      "area_name": "內埔鄉",
      "lon": 120.631889,
      "lat": 22.711667
    },
    {
      "source": "taiwan_cwa",
      "kind": "taiwan_auto_station",
      "area_id": "taiwan",
      "station_id": "TW:C0R120",
      "name": "上德文",
      "city": "屏東縣",
      "area_name": "三地門鄉",
      "lon": 120.696523,
      "lat": 22.76515
    },
    {
      "source": "taiwan_cwa",
      "kind": "taiwan_auto_station",
      "area_id": "taiwan",
      "station_id": "TW:C0R910",
      "name": "下寮",
      "city": "屏東縣",
      "area_name": "枋寮鄉",
      "lon": 120.546743,
      "lat": 22.394648
    },
    {
      "source": "taiwan_cwa",
      "kind": "taiwan_auto_station",
      "area_id": "taiwan",
      "station_id": "TW:C0R800",
      "name": "丹路",
      "city": "屏東縣",
      "area_name": "獅子鄉",
      "lon": 120.742964,
      "lat": 22.206281
    },
    {
      "source": "taiwan_cwa",
      "kind": "taiwan_auto_station",
      "area_id": "taiwan",
      "station_id": "TW:C2R490",
      "name": "九如",
      "city": "屏東縣",
      "area_name": "九如鄉",
      "lon": 120.482496,
      "lat": 22.742267
    },
    {
      "source": "taiwan_cwa",
      "kind": "taiwan_auto_station",
      "area_id": "taiwan",
      "station_id": "TW:C0R790",
      "name": "九棚",
      "city": "屏東縣",
      "area_name": "滿州鄉",
      "lon": 120.886331,
      "lat": 22.143756
    },
    {
      "source": "taiwan_cwa",
      "kind": "taiwan_auto_station",
      "area_id": "taiwan",
      "station_id": "TW:C0R540",
      "name": "佳冬",
      "city": "屏東縣",
      "area_name": "佳冬鄉",
      "lon": 120.544222,
      "lat": 22.421194
    },
    {
      "source": "taiwan_cwa",
      "kind": "taiwan_auto_station",
      "area_id": "taiwan",
      "station_id": "TW:C0R680",
      "name": "佳樂水",
      "city": "屏東縣",
      "area_name": "滿州鄉",
      "lon": 120.853619,
      "lat": 21.995386
    },
    {
      "source": "taiwan_cwa",
      "kind": "taiwan_auto_station",
      "area_id": "taiwan",
      "station_id": "TW:C0R770",
      "name": "保力",
      "city": "屏東縣",
      "area_name": "車城鄉",
      "lon": 120.756094,
      "lat": 22.072925
    },
    {
      "source": "taiwan_cwa",
      "kind": "taiwan_auto_station",
      "area_id": "taiwan",
      "station_id": "TW:C0R960",
      "name": "內埔",
      "city": "屏東縣",
      "area_name": "內埔鄉",
      "lon": 120.562662,
      "lat": 22.610267
    },
    {
      "source": "taiwan_cwa",
      "kind": "taiwan_auto_station",
      "area_id": "taiwan",
      "station_id": "TW:C0R810",
      "name": "內獅",
      "city": "屏東縣",
      "area_name": "獅子鄉",
      "lon": 120.634956,
      "lat": 22.306856
    },
    {
      "source": "taiwan_cwa",
      "kind": "taiwan_auto_station",
      "area_id": "taiwan",
      "station_id": "TW:C0R940",
      "name": "加祿堂",
      "city": "屏東縣",
      "area_name": "枋山鄉",
      "lon": 120.613688,
      "lat": 22.338096
    },
    {
      "source": "taiwan_cwa",
      "kind": "taiwan_auto_station",
      "area_id": "taiwan",
      "station_id": "TW:C0R760",
      "name": "南仁湖",
      "city": "屏東縣",
      "area_name": "滿州鄉",
      "lon": 120.855333,
      "lat": 22.086486
    },
    {
      "source": "taiwan_cwa",
      "kind": "taiwan_auto_station",
      "area_id": "taiwan",
      "station_id": "TW:C0R580",
      "name": "南州",
      "city": "屏東縣",
      "area_name": "南州鄉",
      "lon": 120.494694,
      "lat": 22.487694
    },
    {
      "source": "taiwan_cwa",
      "kind": "taiwan_auto_station",
      "area_id": "taiwan",
      "station_id": "TW:C0R750",
      "name": "四林格山",
      "city": "屏東縣",
      "area_name": "牡丹鄉",
      "lon": 120.794419,
      "lat": 22.078792
    },
    {
      "source": "taiwan_cwa",
      "kind": "taiwan_auto_station",
      "area_id": "taiwan",
      "station_id": "TW:CAQ010",
      "name": "國三N425K",
      "city": "屏東縣",
      "area_name": "南州鄉",
      "lon": 120.523623,
      "lat": 22.482061
    },
    {
      "source": "taiwan_cwa",
      "kind": "taiwan_auto_station",
      "area_id": "taiwan",
      "station_id": "TW:CAQ020",
      "name": "國三S415K",
      "city": "屏東縣",
      "area_name": "竹田鄉",
      "lon": 120.519952,
      "lat": 22.569782
    },
    {
      "source": "taiwan_cwa",
      "kind": "taiwan_auto_station",
      "area_id": "taiwan",
      "station_id": "TW:C0R920",
      "name": "塭仔",
      "city": "屏東縣",
      "area_name": "佳冬鄉",
      "lon": 120.511622,
      "lat": 22.418718
    },
    {
      "source": "taiwan_cwa",
      "kind": "taiwan_auto_station",
      "area_id": "taiwan",
      "station_id": "TW:C0R690",
      "name": "墾丁",
      "city": "屏東縣",
      "area_name": "恆春鎮",
      "lon": 120.802258,
      "lat": 21.968561
    },
    {
      "source": "taiwan_cwa",
      "kind": "taiwan_auto_station",
      "area_id": "taiwan",
      "station_id": "TW:C0R730",
      "name": "大坪頂",
      "city": "屏東縣",
      "area_name": "恆春鎮",
      "lon": 120.685536,
      "lat": 22.026433
    },
    {
      "source": "taiwan_cwa",
      "kind": "taiwan_auto_station",
      "area_id": "taiwan",
      "station_id": "TW:C2RA10",
      "name": "大新",
      "city": "屏東縣",
      "area_name": "內埔鄉",
      "lon": 120.569824,
      "lat": 22.677362
    },
    {
      "source": "taiwan_cwa",
      "kind": "taiwan_auto_station",
      "area_id": "taiwan",
      "station_id": "TW:C0R440",
      "name": "大漢山",
      "city": "屏東縣",
      "area_name": "春日鄉",
      "lon": 120.745083,
      "lat": 22.405861
    },
    {
      "source": "taiwan_cwa",
      "kind": "taiwan_auto_station",
      "area_id": "taiwan",
      "station_id": "TW:C0R100",
      "name": "尾寮山",
      "city": "屏東縣",
      "area_name": "三地門鄉",
      "lon": 120.675806,
      "lat": 22.834889
    },
    {
      "source": "taiwan_cwa",
      "kind": "taiwan_auto_station",
      "area_id": "taiwan",
      "station_id": "TW:C2R170",
      "name": "屏東",
      "city": "屏東縣",
      "area_name": "屏東市",
      "lon": 120.485974,
      "lat": 22.662048
    },
    {
      "source": "taiwan_cwa",
      "kind": "taiwan_auto_station",
      "area_id": "taiwan",
      "station_id": "TW:C2R970",
      "name": "屏科大",
      "city": "屏東縣",
      "area_name": "內埔鄉",
      "lon": 120.611193,
      "lat": 22.65006
    },
    {
      "source": "taiwan_cwa",
      "kind": "taiwan_auto_station",
      "area_id": "taiwan",
      "station_id": "TW:C0R890",
      "name": "山海",
      "city": "屏東縣",
      "area_name": "恆春鎮",
      "lon": 120.701107,
      "lat": 21.989579
    },
    {
      "source": "taiwan_cwa",
      "kind": "taiwan_auto_station",
      "area_id": "taiwan",
      "station_id": "TW:C0R520",
      "name": "崁頂",
      "city": "屏東縣",
      "area_name": "崁頂鄉",
      "lon": 120.498972,
      "lat": 22.516639
    },
    {
      "source": "taiwan_cwa",
      "kind": "taiwan_auto_station",
      "area_id": "taiwan",
      "station_id": "TW:CAQ030",
      "name": "崎峰國小",
      "city": "屏東縣",
      "area_name": "林邊鄉",
      "lon": 120.487171,
      "lat": 22.427434
    },
    {
      "source": "taiwan_cwa",
      "kind": "taiwan_auto_station",
      "area_id": "taiwan",
      "station_id": "TW:C0R880",
      "name": "後壁湖",
      "city": "屏東縣",
      "area_name": "恆春鎮",
      "lon": 120.737695,
      "lat": 21.94747
    },
    {
      "source": "taiwan_cwa",
      "kind": "taiwan_auto_station",
      "area_id": "taiwan",
      "station_id": "TW:467590",
      "name": "恆春",
      "city": "屏東縣",
      "area_name": "恆春鎮",
      "lon": 120.738326,
      "lat": 22.0057
    },
    {
      "source": "taiwan_cwa",
      "kind": "taiwan_auto_station",
      "area_id": "taiwan",
      "station_id": "TW:12Q980",
      "name": "恆春工作站",
      "city": "屏東縣",
      "area_name": "車城鄉",
      "lon": 120.706406,
      "lat": 22.081478
    },
    {
      "source": "taiwan_cwa",
      "kind": "taiwan_auto_station",
      "area_id": "taiwan",
      "station_id": "TW:C0R560",
      "name": "新園",
      "city": "屏東縣",
      "area_name": "新園鄉",
      "lon": 120.4535,
      "lat": 22.545194
    },
    {
      "source": "taiwan_cwa",
      "kind": "taiwan_auto_station",
      "area_id": "taiwan",
      "station_id": "TW:C2R550",
      "name": "新埤",
      "city": "屏東縣",
      "area_name": "新埤鄉",
      "lon": 120.574852,
      "lat": 22.469734
    },
    {
      "source": "taiwan_cwa",
      "kind": "taiwan_auto_station",
      "area_id": "taiwan",
      "station_id": "TW:C0R720",
      "name": "旭海",
      "city": "屏東縣",
      "area_name": "牡丹鄉",
      "lon": 120.879586,
      "lat": 22.207208
    },
    {
      "source": "taiwan_cwa",
      "kind": "taiwan_auto_station",
      "area_id": "taiwan",
      "station_id": "TW:C2R260",
      "name": "春日",
      "city": "屏東縣",
      "area_name": "春日鄉",
      "lon": 120.62027,
      "lat": 22.372152
    },
    {
      "source": "taiwan_cwa",
      "kind": "taiwan_auto_station",
      "area_id": "taiwan",
      "station_id": "TW:C0R640",
      "name": "東港",
      "city": "屏東縣",
      "area_name": "東港鎮",
      "lon": 120.432703,
      "lat": 22.464244
    },
    {
      "source": "taiwan_cwa",
      "kind": "taiwan_auto_station",
      "area_id": "taiwan",
      "station_id": "TW:12Q970",
      "name": "東港工作站",
      "city": "屏東縣",
      "area_name": "東港鎮",
      "lon": 120.458017,
      "lat": 22.481778
    },
    {
      "source": "taiwan_cwa",
      "kind": "taiwan_auto_station",
      "area_id": "taiwan",
      "station_id": "TW:C0R660",
      "name": "枋寮",
      "city": "屏東縣",
      "area_name": "枋寮鄉",
      "lon": 120.582611,
      "lat": 22.369511
    },
    {
      "source": "taiwan_cwa",
      "kind": "taiwan_auto_station",
      "area_id": "taiwan",
      "station_id": "TW:C0R700",
      "name": "枋山",
      "city": "屏東縣",
      "area_name": "枋山鄉",
      "lon": 120.652748,
      "lat": 22.249572
    },
    {
      "source": "taiwan_cwa",
      "kind": "taiwan_auto_station",
      "area_id": "taiwan",
      "station_id": "TW:C0R850",
      "name": "林邊",
      "city": "屏東縣",
      "area_name": "林邊鄉",
      "lon": 120.52585,
      "lat": 22.465232
    },
    {
      "source": "taiwan_cwa",
      "kind": "taiwan_auto_station",
      "area_id": "taiwan",
      "station_id": "TW:C0R670",
      "name": "楓港",
      "city": "屏東縣",
      "area_name": "枋山鄉",
      "lon": 120.684131,
      "lat": 22.191928
    },
    {
      "source": "taiwan_cwa",
      "kind": "taiwan_auto_station",
      "area_id": "taiwan",
      "station_id": "TW:C0R280",
      "name": "檳榔",
      "city": "屏東縣",
      "area_name": "滿州鄉",
      "lon": 120.828758,
      "lat": 22.077883
    },
    {
      "source": "taiwan_cwa",
      "kind": "taiwan_auto_station",
      "area_id": "taiwan",
      "station_id": "TW:C2R990",
      "name": "泰武",
      "city": "屏東縣",
      "area_name": "泰武鄉",
      "lon": 120.689598,
      "lat": 22.608649
    },
    {
      "source": "taiwan_cwa",
      "kind": "taiwan_auto_station",
      "area_id": "taiwan",
      "station_id": "TW:C0R780",
      "name": "滿州",
      "city": "屏東縣",
      "area_name": "滿州鄉",
      "lon": 120.831875,
      "lat": 22.026208
    },
    {
      "source": "taiwan_cwa",
      "kind": "taiwan_auto_station",
      "area_id": "taiwan",
      "station_id": "TW:C0R220",
      "name": "潮州",
      "city": "屏東縣",
      "area_name": "潮州鎮",
      "lon": 120.531972,
      "lat": 22.536139
    },
    {
      "source": "taiwan_cwa",
      "kind": "taiwan_auto_station",
      "area_id": "taiwan",
      "station_id": "TW:C0R341",
      "name": "牡丹",
      "city": "屏東縣",
      "area_name": "牡丹鄉",
      "lon": 120.784589,
      "lat": 22.131817
    },
    {
      "source": "taiwan_cwa",
      "kind": "taiwan_auto_station",
      "area_id": "taiwan",
      "station_id": "TW:C0R840",
      "name": "牡丹池山",
      "city": "屏東縣",
      "area_name": "牡丹鄉",
      "lon": 120.8332,
      "lat": 22.170192
    },
    {
      "source": "taiwan_cwa",
      "kind": "taiwan_auto_station",
      "area_id": "taiwan",
      "station_id": "TW:C0R741",
      "name": "獅子",
      "city": "屏東縣",
      "area_name": "獅子鄉",
      "lon": 120.69721,
      "lat": 22.204106
    },
    {
      "source": "taiwan_cwa",
      "kind": "taiwan_auto_station",
      "area_id": "taiwan",
      "station_id": "TW:C0R270",
      "name": "琉球嶼",
      "city": "屏東縣",
      "area_name": "琉球鄉",
      "lon": 120.354194,
      "lat": 22.334025
    },
    {
      "source": "taiwan_cwa",
      "kind": "taiwan_auto_station",
      "area_id": "taiwan",
      "station_id": "TW:C0R140",
      "name": "瑪家",
      "city": "屏東縣",
      "area_name": "瑪家鄉",
      "lon": 120.678889,
      "lat": 22.684722
    },
    {
      "source": "taiwan_cwa",
      "kind": "taiwan_auto_station",
      "area_id": "taiwan",
      "station_id": "TW:B2Q810",
      "name": "畜試南區分所",
      "city": "屏東縣",
      "area_name": "恆春鎮",
      "lon": 120.794139,
      "lat": 21.947348
    },
    {
      "source": "taiwan_cwa",
      "kind": "taiwan_auto_station",
      "area_id": "taiwan",
      "station_id": "TW:C0R820",
      "name": "白鷺",
      "city": "屏東縣",
      "area_name": "來義鄉",
      "lon": 120.658178,
      "lat": 22.456067
    },
    {
      "source": "taiwan_cwa",
      "kind": "taiwan_auto_station",
      "area_id": "taiwan",
      "station_id": "TW:C0R900",
      "name": "竹坑",
      "city": "屏東縣",
      "area_name": "車城鄉",
      "lon": 120.694128,
      "lat": 22.140248
    },
    {
      "source": "taiwan_cwa",
      "kind": "taiwan_auto_station",
      "area_id": "taiwan",
      "station_id": "TW:C0R650",
      "name": "竹田",
      "city": "屏東縣",
      "area_name": "竹田鄉",
      "lon": 120.535392,
      "lat": 22.586642
    },
    {
      "source": "taiwan_cwa",
      "kind": "taiwan_auto_station",
      "area_id": "taiwan",
      "station_id": "TW:C2R980",
      "name": "竹田國中",
      "city": "屏東縣",
      "area_name": "竹田鄉",
      "lon": 120.516069,
      "lat": 22.617101
    },
    {
      "source": "taiwan_cwa",
      "kind": "taiwan_auto_station",
      "area_id": "taiwan",
      "station_id": "TW:C0R870",
      "name": "興海",
      "city": "屏東縣",
      "area_name": "滿州鄉",
      "lon": 120.835907,
      "lat": 21.976985
    },
    {
      "source": "taiwan_cwa",
      "kind": "taiwan_auto_station",
      "area_id": "taiwan",
      "station_id": "TW:C0R600",
      "name": "舊泰武",
      "city": "屏東縣",
      "area_name": "泰武鄉",
      "lon": 120.656922,
      "lat": 22.58995
    },
    {
      "source": "taiwan_cwa",
      "kind": "taiwan_auto_station",
      "area_id": "taiwan",
      "station_id": "TW:C0R930",
      "name": "萬丹",
      "city": "屏東縣",
      "area_name": "萬丹鄉",
      "lon": 120.477031,
      "lat": 22.590256
    },
    {
      "source": "taiwan_cwa",
      "kind": "taiwan_auto_station",
      "area_id": "taiwan",
      "station_id": "TW:C2R240",
      "name": "萬巒",
      "city": "屏東縣",
      "area_name": "萬巒鄉",
      "lon": 120.617065,
      "lat": 22.529093
    },
    {
      "source": "taiwan_cwa",
      "kind": "taiwan_auto_station",
      "area_id": "taiwan",
      "station_id": "TW:C0R950",
      "name": "萬隆國小",
      "city": "屏東縣",
      "area_name": "新埤鄉",
      "lon": 120.579772,
      "lat": 22.509453
    },
    {
      "source": "taiwan_cwa",
      "kind": "taiwan_auto_station",
      "area_id": "taiwan",
      "station_id": "TW:C0R350",
      "name": "貓鼻頭",
      "city": "屏東縣",
      "area_name": "恆春鎮",
      "lon": 120.727792,
      "lat": 21.923578
    },
    {
      "source": "taiwan_cwa",
      "kind": "taiwan_auto_station",
      "area_id": "taiwan",
      "station_id": "TW:C0R190",
      "name": "赤山",
      "city": "屏東縣",
      "area_name": "萬巒鄉",
      "lon": 120.60625,
      "lat": 22.594139
    },
    {
      "source": "taiwan_cwa",
      "kind": "taiwan_auto_station",
      "area_id": "taiwan",
      "station_id": "TW:C0R320",
      "name": "車城",
      "city": "屏東縣",
      "area_name": "車城鄉",
      "lon": 120.708056,
      "lat": 22.075833
    },
    {
      "source": "taiwan_cwa",
      "kind": "taiwan_auto_station",
      "area_id": "taiwan",
      "station_id": "TW:C0R590",
      "name": "里港",
      "city": "屏東縣",
      "area_name": "里港鄉",
      "lon": 120.486528,
      "lat": 22.780972
    },
    {
      "source": "taiwan_cwa",
      "kind": "taiwan_auto_station",
      "area_id": "taiwan",
      "station_id": "TW:C0R480",
      "name": "長治",
      "city": "屏東縣",
      "area_name": "長治鄉",
      "lon": 120.534611,
      "lat": 22.694833
    },
    {
      "source": "taiwan_cwa",
      "kind": "taiwan_auto_station",
      "area_id": "taiwan",
      "station_id": "TW:C0R130",
      "name": "阿禮",
      "city": "屏東縣",
      "area_name": "霧臺鄉",
      "lon": 120.735556,
      "lat": 22.744444
    },
    {
      "source": "taiwan_cwa",
      "kind": "taiwan_auto_station",
      "area_id": "taiwan",
      "station_id": "TW:C0R830",
      "name": "高士",
      "city": "屏東縣",
      "area_name": "牡丹鄉",
      "lon": 120.828758,
      "lat": 22.123631
    },
    {
      "source": "taiwan_cwa",
      "kind": "taiwan_auto_station",
      "area_id": "taiwan",
      "station_id": "TW:C2R9A0",
      "name": "高士國小",
      "city": "屏東縣",
      "area_name": "牡丹鄉",
      "lon": 120.838508,
      "lat": 22.127335
    },
    {
      "source": "taiwan_cwa",
      "kind": "taiwan_auto_station",
      "area_id": "taiwan",
      "station_id": "TW:C0R470",
      "name": "高樹",
      "city": "屏東縣",
      "area_name": "高樹鄉",
      "lon": 120.592722,
      "lat": 22.828222
    },
    {
      "source": "taiwan_cwa",
      "kind": "taiwan_auto_station",
      "area_id": "taiwan",
      "station_id": "TW:72Q010",
      "name": "高雄農改",
      "city": "屏東縣",
      "area_name": "長治鄉",
      "lon": 120.517814,
      "lat": 22.711084
    },
    {
      "source": "taiwan_cwa",
      "kind": "taiwan_auto_station",
      "area_id": "taiwan",
      "station_id": "TW:C0R160",
      "name": "鹽埔",
      "city": "屏東縣",
      "area_name": "鹽埔鄉",
      "lon": 120.522697,
      "lat": 22.741342
    },
    {
      "source": "taiwan_cwa",
      "kind": "taiwan_auto_station",
      "area_id": "taiwan",
      "station_id": "TW:C0R570",
      "name": "麟洛",
      "city": "屏東縣",
      "area_name": "麟洛鄉",
      "lon": 120.519139,
      "lat": 22.652556
    },
    {
      "source": "taiwan_cwa",
      "kind": "taiwan_auto_station",
      "area_id": "taiwan",
      "station_id": "TW:C0R860",
      "name": "鼻頭",
      "city": "屏東縣",
      "area_name": "滿州鄉",
      "lon": 120.889862,
      "lat": 22.106107
    },
    {
      "source": "taiwan_cwa",
      "kind": "taiwan_auto_station",
      "area_id": "taiwan",
      "station_id": "TW:C0G970",
      "name": "三豐",
      "city": "彰化縣",
      "area_name": "大城鄉",
      "lon": 120.281409,
      "lat": 23.883719
    },
    {
      "source": "taiwan_cwa",
      "kind": "taiwan_auto_station",
      "area_id": "taiwan",
      "station_id": "TW:C0G730",
      "name": "二林",
      "city": "彰化縣",
      "area_name": "二林鎮",
      "lon": 120.367928,
      "lat": 23.905067
    },
    {
      "source": "taiwan_cwa",
      "kind": "taiwan_auto_station",
      "area_id": "taiwan",
      "station_id": "TW:C0G880",
      "name": "二水",
      "city": "彰化縣",
      "area_name": "二水鄉",
      "lon": 120.609028,
      "lat": 23.812778
    },
    {
      "source": "taiwan_cwa",
      "kind": "taiwan_auto_station",
      "area_id": "taiwan",
      "station_id": "TW:C0G890",
      "name": "伸港",
      "city": "彰化縣",
      "area_name": "伸港鄉",
      "lon": 120.476167,
      "lat": 24.150528
    },
    {
      "source": "taiwan_cwa",
      "kind": "taiwan_auto_station",
      "area_id": "taiwan",
      "station_id": "TW:C2G840",
      "name": "北斗",
      "city": "彰化縣",
      "area_name": "北斗鎮",
      "lon": 120.506528,
      "lat": 23.879222
    },
    {
      "source": "taiwan_cwa",
      "kind": "taiwan_auto_station",
      "area_id": "taiwan",
      "station_id": "TW:C0G9B0",
      "name": "和美",
      "city": "彰化縣",
      "area_name": "和美鎮",
      "lon": 120.483978,
      "lat": 24.106919
    },
    {
      "source": "taiwan_cwa",
      "kind": "taiwan_auto_station",
      "area_id": "taiwan",
      "station_id": "TW:C0G650",
      "name": "員林",
      "city": "彰化縣",
      "area_name": "員林市",
      "lon": 120.577528,
      "lat": 23.948333
    },
    {
      "source": "taiwan_cwa",
      "kind": "taiwan_auto_station",
      "area_id": "taiwan",
      "station_id": "TW:CAG010",
      "name": "國一N198K",
      "city": "彰化縣",
      "area_name": "彰化市",
      "lon": 120.514899,
      "lat": 24.065639
    },
    {
      "source": "taiwan_cwa",
      "kind": "taiwan_auto_station",
      "area_id": "taiwan",
      "station_id": "TW:CAG030",
      "name": "國一S207K",
      "city": "彰化縣",
      "area_name": "大村鄉",
      "lon": 120.499939,
      "lat": 23.990053
    },
    {
      "source": "taiwan_cwa",
      "kind": "taiwan_auto_station",
      "area_id": "taiwan",
      "station_id": "TW:CAG040",
      "name": "國三N191K",
      "city": "彰化縣",
      "area_name": "和美鎮",
      "lon": 120.513338,
      "lat": 24.141006
    },
    {
      "source": "taiwan_cwa",
      "kind": "taiwan_auto_station",
      "area_id": "taiwan",
      "station_id": "TW:CAG050",
      "name": "國三N196K",
      "city": "彰化縣",
      "area_name": "彰化市",
      "lon": 120.546322,
      "lat": 24.108907
    },
    {
      "source": "taiwan_cwa",
      "kind": "taiwan_auto_station",
      "area_id": "taiwan",
      "station_id": "TW:CAG060",
      "name": "國三S202K",
      "city": "彰化縣",
      "area_name": "彰化市",
      "lon": 120.595098,
      "lat": 24.094222
    },
    {
      "source": "taiwan_cwa",
      "kind": "taiwan_auto_station",
      "area_id": "taiwan",
      "station_id": "TW:C2G9C0",
      "name": "埔南",
      "city": "彰化縣",
      "area_name": "埔鹽鄉",
      "lon": 120.461546,
      "lat": 23.992991
    },
    {
      "source": "taiwan_cwa",
      "kind": "taiwan_auto_station",
      "area_id": "taiwan",
      "station_id": "TW:C0G810",
      "name": "埔心",
      "city": "彰化縣",
      "area_name": "埔心鄉",
      "lon": 120.517611,
      "lat": 23.948694
    },
    {
      "source": "taiwan_cwa",
      "kind": "taiwan_auto_station",
      "area_id": "taiwan",
      "station_id": "TW:C0G800",
      "name": "埔鹽",
      "city": "彰化縣",
      "area_name": "埔鹽鄉",
      "lon": 120.423583,
      "lat": 24.002167
    },
    {
      "source": "taiwan_cwa",
      "kind": "taiwan_auto_station",
      "area_id": "taiwan",
      "station_id": "TW:C0G740",
      "name": "大城",
      "city": "彰化縣",
      "area_name": "大城鄉",
      "lon": 120.312789,
      "lat": 23.854225
    },
    {
      "source": "taiwan_cwa",
      "kind": "taiwan_auto_station",
      "area_id": "taiwan",
      "station_id": "TW:A0G720",
      "name": "彰師大",
      "city": "彰化縣",
      "area_name": "彰化市",
      "lon": 120.548508,
      "lat": 24.08314
    },
    {
      "source": "taiwan_cwa",
      "kind": "taiwan_auto_station",
      "area_id": "taiwan",
      "station_id": "TW:C0G920",
      "name": "永靖",
      "city": "彰化縣",
      "area_name": "永靖鄉",
      "lon": 120.539392,
      "lat": 23.926458
    },
    {
      "source": "taiwan_cwa",
      "kind": "taiwan_auto_station",
      "area_id": "taiwan",
      "station_id": "TW:C0G720",
      "name": "溪州",
      "city": "彰化縣",
      "area_name": "溪州鄉",
      "lon": 120.490944,
      "lat": 23.853347
    },
    {
      "source": "taiwan_cwa",
      "kind": "taiwan_auto_station",
      "area_id": "taiwan",
      "station_id": "TW:C0G660",
      "name": "溪湖",
      "city": "彰化縣",
      "area_name": "溪湖鎮",
      "lon": 120.471056,
      "lat": 23.95175
    },
    {
      "source": "taiwan_cwa",
      "kind": "taiwan_auto_station",
      "area_id": "taiwan",
      "station_id": "TW:CAG100",
      "name": "王功漁港",
      "city": "彰化縣",
      "area_name": "芳苑鄉",
      "lon": 120.317718,
      "lat": 23.969984
    },
    {
      "source": "taiwan_cwa",
      "kind": "taiwan_auto_station",
      "area_id": "taiwan",
      "station_id": "TW:467270",
      "name": "田中",
      "city": "彰化縣",
      "area_name": "田中鎮",
      "lon": 120.573149,
      "lat": 23.875561
    },
    {
      "source": "taiwan_cwa",
      "kind": "taiwan_auto_station",
      "area_id": "taiwan",
      "station_id": "TW:C0G820",
      "name": "田尾",
      "city": "彰化縣",
      "area_name": "田尾鄉",
      "lon": 120.501389,
      "lat": 23.903417
    },
    {
      "source": "taiwan_cwa",
      "kind": "taiwan_auto_station",
      "area_id": "taiwan",
      "station_id": "TW:C2G980",
      "name": "田頭村",
      "city": "彰化縣",
      "area_name": "竹塘鄉",
      "lon": 120.436042,
      "lat": 23.828053
    },
    {
      "source": "taiwan_cwa",
      "kind": "taiwan_auto_station",
      "area_id": "taiwan",
      "station_id": "TW:C2G9A0",
      "name": "畜試所彰化",
      "city": "彰化縣",
      "area_name": "北斗鎮",
      "lon": 120.549828,
      "lat": 23.862208
    },
    {
      "source": "taiwan_cwa",
      "kind": "taiwan_auto_station",
      "area_id": "taiwan",
      "station_id": "TW:C0G860",
      "name": "社頭",
      "city": "彰化縣",
      "area_name": "社頭鄉",
      "lon": 120.578083,
      "lat": 23.899417
    },
    {
      "source": "taiwan_cwa",
      "kind": "taiwan_auto_station",
      "area_id": "taiwan",
      "station_id": "TW:C0G960",
      "name": "福寶",
      "city": "彰化縣",
      "area_name": "福興鄉",
      "lon": 120.373213,
      "lat": 24.046048
    },
    {
      "source": "taiwan_cwa",
      "kind": "taiwan_auto_station",
      "area_id": "taiwan",
      "station_id": "TW:C0G770",
      "name": "福興",
      "city": "彰化縣",
      "area_name": "福興鄉",
      "lon": 120.429528,
      "lat": 24.042972
    },
    {
      "source": "taiwan_cwa",
      "kind": "taiwan_auto_station",
      "area_id": "taiwan",
      "station_id": "TW:C0G780",
      "name": "秀水",
      "city": "彰化縣",
      "area_name": "秀水鄉",
      "lon": 120.495722,
      "lat": 24.035917
    },
    {
      "source": "taiwan_cwa",
      "kind": "taiwan_auto_station",
      "area_id": "taiwan",
      "station_id": "TW:C2G9E0",
      "name": "移民庄",
      "city": "彰化縣",
      "area_name": "二林鎮",
      "lon": 120.394687,
      "lat": 23.980148
    },
    {
      "source": "taiwan_cwa",
      "kind": "taiwan_auto_station",
      "area_id": "taiwan",
      "station_id": "TW:C0G900",
      "name": "線西",
      "city": "彰化縣",
      "area_name": "線西鄉",
      "lon": 120.435381,
      "lat": 24.141081
    },
    {
      "source": "taiwan_cwa",
      "kind": "taiwan_auto_station",
      "area_id": "taiwan",
      "station_id": "TW:72G600",
      "name": "臺中農改",
      "city": "彰化縣",
      "area_name": "大村鄉",
      "lon": 120.526236,
      "lat": 24.004779
    },
    {
      "source": "taiwan_cwa",
      "kind": "taiwan_auto_station",
      "area_id": "taiwan",
      "station_id": "TW:C0G620",
      "name": "芬園",
      "city": "彰化縣",
      "area_name": "芬園鄉",
      "lon": 120.613056,
      "lat": 24.017222
    },
    {
      "source": "taiwan_cwa",
      "kind": "taiwan_auto_station",
      "area_id": "taiwan",
      "station_id": "TW:C0G910",
      "name": "花壇",
      "city": "彰化縣",
      "area_name": "花壇鄉",
      "lon": 120.541314,
      "lat": 24.032075
    },
    {
      "source": "taiwan_cwa",
      "kind": "taiwan_auto_station",
      "area_id": "taiwan",
      "station_id": "TW:C2G870",
      "name": "芳苑",
      "city": "彰化縣",
      "area_name": "芳苑鄉",
      "lon": 120.311861,
      "lat": 23.924
    },
    {
      "source": "taiwan_cwa",
      "kind": "taiwan_auto_station",
      "area_id": "taiwan",
      "station_id": "TW:CAG090",
      "name": "西濱N210K",
      "city": "彰化縣",
      "area_name": "大城鄉",
      "lon": 120.285103,
      "lat": 23.845282
    },
    {
      "source": "taiwan_cwa",
      "kind": "taiwan_auto_station",
      "area_id": "taiwan",
      "station_id": "TW:CAG070",
      "name": "西濱S173K",
      "city": "彰化縣",
      "area_name": "鹿港鎮",
      "lon": 120.426423,
      "lat": 24.109847
    },
    {
      "source": "taiwan_cwa",
      "kind": "taiwan_auto_station",
      "area_id": "taiwan",
      "station_id": "TW:CAG080",
      "name": "西濱S189K",
      "city": "彰化縣",
      "area_name": "芳苑鄉",
      "lon": 120.361463,
      "lat": 23.989603
    },
    {
      "source": "taiwan_cwa",
      "kind": "taiwan_auto_station",
      "area_id": "taiwan",
      "station_id": "TW:C2G640",
      "name": "鹿港",
      "city": "彰化縣",
      "area_name": "鹿港鎮",
      "lon": 120.422222,
      "lat": 24.076944
    },
    {
      "source": "taiwan_cwa",
      "kind": "taiwan_auto_station",
      "area_id": "taiwan",
      "station_id": "TW:C0A931",
      "name": "三和",
      "city": "新北市",
      "area_name": "金山區",
      "lon": 121.586997,
      "lat": 25.234933
    },
    {
      "source": "taiwan_cwa",
      "kind": "taiwan_auto_station",
      "area_id": "taiwan",
      "station_id": "TW:C0AC60",
      "name": "三峽",
      "city": "新北市",
      "area_name": "三峽區",
      "lon": 121.3615,
      "lat": 24.940806
    },
    {
      "source": "taiwan_cwa",
      "kind": "taiwan_auto_station",
      "area_id": "taiwan",
      "station_id": "TW:C0A970",
      "name": "三貂角",
      "city": "新北市",
      "area_name": "貢寮區",
      "lon": 121.993889,
      "lat": 25.009444
    },
    {
      "source": "taiwan_cwa",
      "kind": "taiwan_auto_station",
      "area_id": "taiwan",
      "station_id": "TW:C0AG80",
      "name": "中和",
      "city": "新北市",
      "area_name": "中和區",
      "lon": 121.483569,
      "lat": 24.993403
    },
    {
      "source": "taiwan_cwa",
      "kind": "taiwan_auto_station",
      "area_id": "taiwan",
      "station_id": "TW:C0AH30",
      "name": "五分山",
      "city": "新北市",
      "area_name": "瑞芳區",
      "lon": 121.772586,
      "lat": 25.073047
    },
    {
      "source": "taiwan_cwa",
      "kind": "taiwan_auto_station",
      "area_id": "taiwan",
      "station_id": "TW:C0A870",
      "name": "五指山",
      "city": "新北市",
      "area_name": "汐止區",
      "lon": 121.600278,
      "lat": 25.133889
    },
    {
      "source": "taiwan_cwa",
      "kind": "taiwan_auto_station",
      "area_id": "taiwan",
      "station_id": "TW:C0AI00",
      "name": "五股",
      "city": "新北市",
      "area_name": "五股區",
      "lon": 121.419053,
      "lat": 25.076228
    },
    {
      "source": "taiwan_cwa",
      "kind": "taiwan_auto_station",
      "area_id": "taiwan",
      "station_id": "TW:C2AK30",
      "name": "信賢",
      "city": "新北市",
      "area_name": "烏來區",
      "lon": 121.526709,
      "lat": 24.842865
    },
    {
      "source": "taiwan_cwa",
      "kind": "taiwan_auto_station",
      "area_id": "taiwan",
      "station_id": "TW:C0AD10",
      "name": "八里",
      "city": "新北市",
      "area_name": "八里區",
      "lon": 121.395306,
      "lat": 25.15225
    },
    {
      "source": "taiwan_cwa",
      "kind": "taiwan_auto_station",
      "area_id": "taiwan",
      "station_id": "TW:C2A540",
      "name": "四堵",
      "city": "新北市",
      "area_name": "坪林區",
      "lon": 121.737519,
      "lat": 24.894394
    },
    {
      "source": "taiwan_cwa",
      "kind": "taiwan_auto_station",
      "area_id": "taiwan",
      "station_id": "TW:CAA010",
      "name": "國一N013K",
      "city": "新北市",
      "area_name": "汐止區",
      "lon": 121.619925,
      "lat": 25.068524
    },
    {
      "source": "taiwan_cwa",
      "kind": "taiwan_auto_station",
      "area_id": "taiwan",
      "station_id": "TW:CAA990",
      "name": "國一N039K",
      "city": "新北市",
      "area_name": "泰山區",
      "lon": 121.373771,
      "lat": 25.066207
    },
    {
      "source": "taiwan_cwa",
      "kind": "taiwan_auto_station",
      "area_id": "taiwan",
      "station_id": "TW:CAA020",
      "name": "國一S026K",
      "city": "新北市",
      "area_name": "三重區",
      "lon": 121.488172,
      "lat": 25.078169
    },
    {
      "source": "taiwan_cwa",
      "kind": "taiwan_auto_station",
      "area_id": "taiwan",
      "station_id": "TW:CAA070",
      "name": "國三N046K",
      "city": "新北市",
      "area_name": "樹林區",
      "lon": 121.387582,
      "lat": 24.952607
    },
    {
      "source": "taiwan_cwa",
      "kind": "taiwan_auto_station",
      "area_id": "taiwan",
      "station_id": "TW:CAA030",
      "name": "國三S010K",
      "city": "新北市",
      "area_name": "汐止區",
      "lon": 121.639272,
      "lat": 25.081787
    },
    {
      "source": "taiwan_cwa",
      "kind": "taiwan_auto_station",
      "area_id": "taiwan",
      "station_id": "TW:CAA050",
      "name": "國三S037K",
      "city": "新北市",
      "area_name": "土城區",
      "lon": 121.462821,
      "lat": 24.984141
    },
    {
      "source": "taiwan_cwa",
      "kind": "taiwan_auto_station",
      "area_id": "taiwan",
      "station_id": "TW:CAA060",
      "name": "國三S042K",
      "city": "新北市",
      "area_name": "土城區",
      "lon": 121.422381,
      "lat": 24.961778
    },
    {
      "source": "taiwan_cwa",
      "kind": "taiwan_auto_station",
      "area_id": "taiwan",
      "station_id": "TW:CAA080",
      "name": "國三S054K",
      "city": "新北市",
      "area_name": "鶯歌區",
      "lon": 121.315683,
      "lat": 24.940943
    },
    {
      "source": "taiwan_cwa",
      "kind": "taiwan_auto_station",
      "area_id": "taiwan",
      "station_id": "TW:CAAD80",
      "name": "國五N008K",
      "city": "新北市",
      "area_name": "石碇區",
      "lon": 121.659868,
      "lat": 24.985201
    },
    {
      "source": "taiwan_cwa",
      "kind": "taiwan_auto_station",
      "area_id": "taiwan",
      "station_id": "TW:CAAD90",
      "name": "國五N013K",
      "city": "新北市",
      "area_name": "坪林區",
      "lon": 121.697289,
      "lat": 24.949395
    },
    {
      "source": "taiwan_cwa",
      "kind": "taiwan_auto_station",
      "area_id": "taiwan",
      "station_id": "TW:CAAD60",
      "name": "國五S005K",
      "city": "新北市",
      "area_name": "石碇區",
      "lon": 121.643708,
      "lat": 24.998202
    },
    {
      "source": "taiwan_cwa",
      "kind": "taiwan_auto_station",
      "area_id": "taiwan",
      "station_id": "TW:CAAD70",
      "name": "國五S006K",
      "city": "新北市",
      "area_name": "石碇區",
      "lon": 121.64875,
      "lat": 24.991753
    },
    {
      "source": "taiwan_cwa",
      "kind": "taiwan_auto_station",
      "area_id": "taiwan",
      "station_id": "TW:C0AD40",
      "name": "土城",
      "city": "新北市",
      "area_name": "土城區",
      "lon": 121.436917,
      "lat": 24.974944
    },
    {
      "source": "taiwan_cwa",
      "kind": "taiwan_auto_station",
      "area_id": "taiwan",
      "station_id": "TW:C0A530",
      "name": "坪林",
      "city": "新北市",
      "area_name": "坪林區",
      "lon": 121.701531,
      "lat": 24.939975
    },
    {
      "source": "taiwan_cwa",
      "kind": "taiwan_auto_station",
      "area_id": "taiwan",
      "station_id": "TW:C0A860",
      "name": "大坪",
      "city": "新北市",
      "area_name": "萬里區",
      "lon": 121.62475,
      "lat": 25.167694
    },
    {
      "source": "taiwan_cwa",
      "kind": "taiwan_auto_station",
      "area_id": "taiwan",
      "station_id": "TW:C0AK10",
      "name": "太平里",
      "city": "新北市",
      "area_name": "林口區",
      "lon": 121.356668,
      "lat": 25.136709
    },
    {
      "source": "taiwan_cwa",
      "kind": "taiwan_auto_station",
      "area_id": "taiwan",
      "station_id": "TW:C2A920",
      "name": "富貴角",
      "city": "新北市",
      "area_name": "石門區",
      "lon": 121.557278,
      "lat": 25.265556
    },
    {
      "source": "taiwan_cwa",
      "kind": "taiwan_auto_station",
      "area_id": "taiwan",
      "station_id": "TW:C0AI10",
      "name": "屈尺",
      "city": "新北市",
      "area_name": "新店區",
      "lon": 121.536533,
      "lat": 24.923619
    },
    {
      "source": "taiwan_cwa",
      "kind": "taiwan_auto_station",
      "area_id": "taiwan",
      "station_id": "TW:C0A520",
      "name": "山佳",
      "city": "新北市",
      "area_name": "樹林區",
      "lon": 121.393789,
      "lat": 24.976719
    },
    {
      "source": "taiwan_cwa",
      "kind": "taiwan_auto_station",
      "area_id": "taiwan",
      "station_id": "TW:466881",
      "name": "新北",
      "city": "新北市",
      "area_name": "新店區",
      "lon": 121.516977,
      "lat": 24.96099
    },
    {
      "source": "taiwan_cwa",
      "kind": "taiwan_auto_station",
      "area_id": "taiwan",
      "station_id": "TW:C0ACA0",
      "name": "新莊",
      "city": "新北市",
      "area_name": "新莊區",
      "lon": 121.438528,
      "lat": 25.05325
    },
    {
      "source": "taiwan_cwa",
      "kind": "taiwan_auto_station",
      "area_id": "taiwan",
      "station_id": "TW:C0AJ80",
      "name": "板橋",
      "city": "新北市",
      "area_name": "板橋區",
      "lon": 121.440638,
      "lat": 25.012431
    },
    {
      "source": "taiwan_cwa",
      "kind": "taiwan_auto_station",
      "area_id": "taiwan",
      "station_id": "TW:C0AH50",
      "name": "林口",
      "city": "新北市",
      "area_name": "林口區",
      "lon": 121.372611,
      "lat": 25.073953
    },
    {
      "source": "taiwan_cwa",
      "kind": "taiwan_auto_station",
      "area_id": "taiwan",
      "station_id": "TW:72AI40",
      "name": "桃改樹林分場",
      "city": "新北市",
      "area_name": "樹林區",
      "lon": 121.378755,
      "lat": 24.946279
    },
    {
      "source": "taiwan_cwa",
      "kind": "taiwan_auto_station",
      "area_id": "taiwan",
      "station_id": "TW:C0A570",
      "name": "桶後",
      "city": "新北市",
      "area_name": "烏來區",
      "lon": 121.589639,
      "lat": 24.850056
    },
    {
      "source": "taiwan_cwa",
      "kind": "taiwan_auto_station",
      "area_id": "taiwan",
      "station_id": "TW:C0AJ50",
      "name": "水湳洞",
      "city": "新北市",
      "area_name": "瑞芳區",
      "lon": 121.854006,
      "lat": 25.125492
    },
    {
      "source": "taiwan_cwa",
      "kind": "taiwan_auto_station",
      "area_id": "taiwan",
      "station_id": "TW:C0AH10",
      "name": "永和",
      "city": "新北市",
      "area_name": "永和區",
      "lon": 121.499889,
      "lat": 25.013028
    },
    {
      "source": "taiwan_cwa",
      "kind": "taiwan_auto_station",
      "area_id": "taiwan",
      "station_id": "TW:C0AH00",
      "name": "汐止",
      "city": "新北市",
      "area_name": "汐止區",
      "lon": 121.650556,
      "lat": 25.068667
    },
    {
      "source": "taiwan_cwa",
      "kind": "taiwan_auto_station",
      "area_id": "taiwan",
      "station_id": "TW:466900",
      "name": "淡水",
      "city": "新北市",
      "area_name": "淡水區",
      "lon": 121.440672,
      "lat": 25.166664
    },
    {
      "source": "taiwan_cwa",
      "kind": "taiwan_auto_station",
      "area_id": "taiwan",
      "station_id": "TW:C0AJ30",
      "name": "淡水觀海",
      "city": "新北市",
      "area_name": "淡水區",
      "lon": 121.400381,
      "lat": 25.186364
    },
    {
      "source": "taiwan_cwa",
      "kind": "taiwan_auto_station",
      "area_id": "taiwan",
      "station_id": "TW:C0AH80",
      "name": "深坑",
      "city": "新北市",
      "area_name": "深坑區",
      "lon": 121.620106,
      "lat": 25.004489
    },
    {
      "source": "taiwan_cwa",
      "kind": "taiwan_auto_station",
      "area_id": "taiwan",
      "station_id": "TW:C2AK40",
      "name": "漁光",
      "city": "新北市",
      "area_name": "坪林區",
      "lon": 121.713099,
      "lat": 24.970542
    },
    {
      "source": "taiwan_cwa",
      "kind": "taiwan_auto_station",
      "area_id": "taiwan",
      "station_id": "TW:C0AJ90",
      "name": "澳底",
      "city": "新北市",
      "area_name": "貢寮區",
      "lon": 121.917036,
      "lat": 25.056993
    },
    {
      "source": "taiwan_cwa",
      "kind": "taiwan_auto_station",
      "area_id": "taiwan",
      "station_id": "TW:C2A650",
      "name": "火燒寮",
      "city": "新北市",
      "area_name": "平溪區",
      "lon": 121.734572,
      "lat": 25.004411
    },
    {
      "source": "taiwan_cwa",
      "kind": "taiwan_auto_station",
      "area_id": "taiwan",
      "station_id": "TW:C2A660",
      "name": "瑞芳",
      "city": "新北市",
      "area_name": "瑞芳區",
      "lon": 121.792639,
      "lat": 25.114861
    },
    {
      "source": "taiwan_cwa",
      "kind": "taiwan_auto_station",
      "area_id": "taiwan",
      "station_id": "TW:C0AJ70",
      "name": "田寮",
      "city": "新北市",
      "area_name": "三芝區",
      "lon": 121.480355,
      "lat": 25.271575
    },
    {
      "source": "taiwan_cwa",
      "kind": "taiwan_auto_station",
      "area_id": "taiwan",
      "station_id": "TW:C0AI20",
      "name": "白沙灣",
      "city": "新北市",
      "area_name": "石門區",
      "lon": 121.510814,
      "lat": 25.284903
    },
    {
      "source": "taiwan_cwa",
      "kind": "taiwan_auto_station",
      "area_id": "taiwan",
      "station_id": "TW:C0A640",
      "name": "石碇",
      "city": "新北市",
      "area_name": "石碇區",
      "lon": 121.654639,
      "lat": 24.995758
    },
    {
      "source": "taiwan_cwa",
      "kind": "taiwan_auto_station",
      "area_id": "taiwan",
      "station_id": "TW:C0AJ40",
      "name": "石門",
      "city": "新北市",
      "area_name": "石門區",
      "lon": 121.592956,
      "lat": 25.275453
    },
    {
      "source": "taiwan_cwa",
      "kind": "taiwan_auto_station",
      "area_id": "taiwan",
      "station_id": "TW:C0AK30",
      "name": "硬漢嶺",
      "city": "新北市",
      "area_name": "八里區",
      "lon": 121.41814,
      "lat": 25.137872
    },
    {
      "source": "taiwan_cwa",
      "kind": "taiwan_auto_station",
      "area_id": "taiwan",
      "station_id": "TW:C2A560",
      "name": "福山",
      "city": "新北市",
      "area_name": "烏來區",
      "lon": 121.494583,
      "lat": 24.778333
    },
    {
      "source": "taiwan_cwa",
      "kind": "taiwan_auto_station",
      "area_id": "taiwan",
      "station_id": "TW:C0AH90",
      "name": "福山植物園",
      "city": "新北市",
      "area_name": "烏來區",
      "lon": 121.573147,
      "lat": 24.762506
    },
    {
      "source": "taiwan_cwa",
      "kind": "taiwan_auto_station",
      "area_id": "taiwan",
      "station_id": "TW:C2A880",
      "name": "福隆",
      "city": "新北市",
      "area_name": "貢寮區",
      "lon": 121.934167,
      "lat": 25.019167
    },
    {
      "source": "taiwan_cwa",
      "kind": "taiwan_auto_station",
      "area_id": "taiwan",
      "station_id": "TW:82A750",
      "name": "茶改北部分場",
      "city": "新北市",
      "area_name": "石碇區",
      "lon": 121.623022,
      "lat": 24.957588
    },
    {
      "source": "taiwan_cwa",
      "kind": "taiwan_auto_station",
      "area_id": "taiwan",
      "station_id": "TW:C0AD30",
      "name": "蘆洲",
      "city": "新北市",
      "area_name": "蘆洲區",
      "lon": 121.464056,
      "lat": 25.088528
    },
    {
      "source": "taiwan_cwa",
      "kind": "taiwan_auto_station",
      "area_id": "taiwan",
      "station_id": "TW:CAAK50",
      "name": "西濱N000K",
      "city": "新北市",
      "area_name": "淡水區",
      "lon": 121.409987,
      "lat": 25.178471
    },
    {
      "source": "taiwan_cwa",
      "kind": "taiwan_auto_station",
      "area_id": "taiwan",
      "station_id": "TW:C0AJ20",
      "name": "野柳",
      "city": "新北市",
      "area_name": "萬里區",
      "lon": 121.681783,
      "lat": 25.208817
    },
    {
      "source": "taiwan_cwa",
      "kind": "taiwan_auto_station",
      "area_id": "taiwan",
      "station_id": "TW:C0A940",
      "name": "金山",
      "city": "新北市",
      "area_name": "金山區",
      "lon": 121.635556,
      "lat": 25.225278
    },
    {
      "source": "taiwan_cwa",
      "kind": "taiwan_auto_station",
      "area_id": "taiwan",
      "station_id": "TW:C0A890",
      "name": "雙溪",
      "city": "新北市",
      "area_name": "雙溪區",
      "lon": 121.856056,
      "lat": 25.037861
    },
    {
      "source": "taiwan_cwa",
      "kind": "taiwan_auto_station",
      "area_id": "taiwan",
      "station_id": "TW:C0AD50",
      "name": "鶯歌",
      "city": "新北市",
      "area_name": "鶯歌區",
      "lon": 121.33725,
      "lat": 24.953
    },
    {
      "source": "taiwan_cwa",
      "kind": "taiwan_auto_station",
      "area_id": "taiwan",
      "station_id": "TW:C0A950",
      "name": "鼻頭角",
      "city": "新北市",
      "area_name": "瑞芳區",
      "lon": 121.915278,
      "lat": 25.130833
    },
    {
      "source": "taiwan_cwa",
      "kind": "taiwan_auto_station",
      "area_id": "taiwan",
      "station_id": "TW:CAD050",
      "name": "國一N094K",
      "city": "新竹市",
      "area_name": "東區",
      "lon": 121.000695,
      "lat": 24.799541
    },
    {
      "source": "taiwan_cwa",
      "kind": "taiwan_auto_station",
      "area_id": "taiwan",
      "station_id": "TW:CAD090",
      "name": "國三S103K",
      "city": "新竹市",
      "area_name": "東區",
      "lon": 120.952631,
      "lat": 24.76037
    },
    {
      "source": "taiwan_cwa",
      "kind": "taiwan_auto_station",
      "area_id": "taiwan",
      "station_id": "TW:C0D660",
      "name": "新竹市東區",
      "city": "新竹市",
      "area_name": "東區",
      "lon": 120.978742,
      "lat": 24.800436
    },
    {
      "source": "taiwan_cwa",
      "kind": "taiwan_auto_station",
      "area_id": "taiwan",
      "station_id": "TW:C0D670",
      "name": "海天一線",
      "city": "新竹市",
      "area_name": "北區",
      "lon": 120.906231,
      "lat": 24.833742
    },
    {
      "source": "taiwan_cwa",
      "kind": "taiwan_auto_station",
      "area_id": "taiwan",
      "station_id": "TW:CAD110",
      "name": "西濱S082K",
      "city": "新竹市",
      "area_name": "香山區",
      "lon": 120.896827,
      "lat": 24.753481
    },
    {
      "source": "taiwan_cwa",
      "kind": "taiwan_auto_station",
      "area_id": "taiwan",
      "station_id": "TW:C0D680",
      "name": "香山濕地",
      "city": "新竹市",
      "area_name": "香山區",
      "lon": 120.906781,
      "lat": 24.785386
    },
    {
      "source": "taiwan_cwa",
      "kind": "taiwan_auto_station",
      "area_id": "taiwan",
      "station_id": "TW:CAD020",
      "name": "國一N077K",
      "city": "新竹縣",
      "area_name": "湖口鄉",
      "lon": 121.080688,
      "lat": 24.886763
    },
    {
      "source": "taiwan_cwa",
      "kind": "taiwan_auto_station",
      "area_id": "taiwan",
      "station_id": "TW:CAD030",
      "name": "國一S082K",
      "city": "新竹縣",
      "area_name": "湖口鄉",
      "lon": 121.038489,
      "lat": 24.878431
    },
    {
      "source": "taiwan_cwa",
      "kind": "taiwan_auto_station",
      "area_id": "taiwan",
      "station_id": "TW:CAD040",
      "name": "國一S088K",
      "city": "新竹縣",
      "area_name": "竹北市",
      "lon": 121.013191,
      "lat": 24.8462
    },
    {
      "source": "taiwan_cwa",
      "kind": "taiwan_auto_station",
      "area_id": "taiwan",
      "station_id": "TW:CAD060",
      "name": "國一S098K",
      "city": "新竹縣",
      "area_name": "寶山鄉",
      "lon": 120.982894,
      "lat": 24.762369
    },
    {
      "source": "taiwan_cwa",
      "kind": "taiwan_auto_station",
      "area_id": "taiwan",
      "station_id": "TW:CAD010",
      "name": "國一S105K",
      "city": "新竹縣",
      "area_name": "寶山鄉",
      "lon": 120.932448,
      "lat": 24.728088
    },
    {
      "source": "taiwan_cwa",
      "kind": "taiwan_auto_station",
      "area_id": "taiwan",
      "station_id": "TW:CAD710",
      "name": "國三N077K",
      "city": "新竹縣",
      "area_name": "關西鎮",
      "lon": 121.181827,
      "lat": 24.799064
    },
    {
      "source": "taiwan_cwa",
      "kind": "taiwan_auto_station",
      "area_id": "taiwan",
      "station_id": "TW:CAD080",
      "name": "國三N085K",
      "city": "新竹縣",
      "area_name": "關西鎮",
      "lon": 121.112895,
      "lat": 24.785096
    },
    {
      "source": "taiwan_cwa",
      "kind": "taiwan_auto_station",
      "area_id": "taiwan",
      "station_id": "TW:C0D690",
      "name": "外湖",
      "city": "新竹縣",
      "area_name": "新豐鄉",
      "lon": 120.960497,
      "lat": 24.919492
    },
    {
      "source": "taiwan_cwa",
      "kind": "taiwan_auto_station",
      "area_id": "taiwan",
      "station_id": "TW:C0D760",
      "name": "大坪苗圃",
      "city": "新竹縣",
      "area_name": "五峰鄉",
      "lon": 121.1026,
      "lat": 24.5379
    },
    {
      "source": "taiwan_cwa",
      "kind": "taiwan_auto_station",
      "area_id": "taiwan",
      "station_id": "TW:C0D580",
      "name": "寶山",
      "city": "新竹縣",
      "area_name": "寶山鄉",
      "lon": 121.016769,
      "lat": 24.736722
    },
    {
      "source": "taiwan_cwa",
      "kind": "taiwan_auto_station",
      "area_id": "taiwan",
      "station_id": "TW:C2D730",
      "name": "寶山農場",
      "city": "新竹縣",
      "area_name": "寶山鄉",
      "lon": 120.967953,
      "lat": 24.734205
    },
    {
      "source": "taiwan_cwa",
      "kind": "taiwan_auto_station",
      "area_id": "taiwan",
      "station_id": "TW:C2D430",
      "name": "峨眉",
      "city": "新竹縣",
      "area_name": "峨眉鄉",
      "lon": 121.009083,
      "lat": 24.692389
    },
    {
      "source": "taiwan_cwa",
      "kind": "taiwan_auto_station",
      "area_id": "taiwan",
      "station_id": "TW:C2D770",
      "name": "巨埔",
      "city": "新竹縣",
      "area_name": "新埔鎮",
      "lon": 121.10621,
      "lat": 24.846114
    },
    {
      "source": "taiwan_cwa",
      "kind": "taiwan_auto_station",
      "area_id": "taiwan",
      "station_id": "TW:C2D480",
      "name": "打鐵坑",
      "city": "新竹縣",
      "area_name": "新埔鎮",
      "lon": 121.142611,
      "lat": 24.85175
    },
    {
      "source": "taiwan_cwa",
      "kind": "taiwan_auto_station",
      "area_id": "taiwan",
      "station_id": "TW:467571",
      "name": "新竹",
      "city": "新竹縣",
      "area_name": "竹北市",
      "lon": 121.006343,
      "lat": 24.830335
    },
    {
      "source": "taiwan_cwa",
      "kind": "taiwan_auto_station",
      "area_id": "taiwan",
      "station_id": "TW:C0D590",
      "name": "新豐",
      "city": "新竹縣",
      "area_name": "新豐鄉",
      "lon": 120.969,
      "lat": 24.872436
    },
    {
      "source": "taiwan_cwa",
      "kind": "taiwan_auto_station",
      "area_id": "taiwan",
      "station_id": "TW:72D080",
      "name": "桃改五峰分場",
      "city": "新竹縣",
      "area_name": "五峰鄉",
      "lon": 121.148983,
      "lat": 24.613978
    },
    {
      "source": "taiwan_cwa",
      "kind": "taiwan_auto_station",
      "area_id": "taiwan",
      "station_id": "TW:72D680",
      "name": "桃改新埔分場",
      "city": "新竹縣",
      "area_name": "新埔鎮",
      "lon": 121.058,
      "lat": 24.836
    },
    {
      "source": "taiwan_cwa",
      "kind": "taiwan_auto_station",
      "area_id": "taiwan",
      "station_id": "TW:C0D360",
      "name": "梅花",
      "city": "新竹縣",
      "area_name": "尖石鄉",
      "lon": 121.200361,
      "lat": 24.680119
    },